OID_,FID_WorldCup_XYTableToPoint1,National_Team,Number,POS,PLAYER_NAME,FIRST_NAME_S_,LAST_NAME_S_,NAME_ON_SHIRT,DOB,CLUB,HEIGHT__CM_,Birth,birth_lat,birth_long,FID_WCSHP,FID_1,COUNTRY,ISO,COUNTRYAFF,AFF_ISO,SHAPE_Leng
374,587,Qatar,16,Defender,Boualem Khoukhi,Boualem,KHOUKHI,KHOUKHI,7/9/1990 0:00,Al Sadd SC (QAT),185,"Bou Ismail, Algeria",36.6392852,2.6962722,3,3,Algeria,DZ,Algeria,DZ,70.54008216
101,559,Portugal,14,Midfielder,William Carvalho,William,SILVA DE CARVALHO,WILLIAM,4/7/1992 0:00,Real Betis (ESP),190,"Luanda, Angola",-8.8146556,13.2301756,6,6,Angola,AO,Angola,AO,58.8734698
103,311,France,25,Midfielder,Camavinga Eduardo,Eduardo Celmi,CAMAVINGA,CAMAVINGA,11/10/2002 0:00,Real Madrid CF (ESP),182,"Cabinda, Angola",-5.5705739,12.197583,6,6,Angola,AO,Angola,AO,58.8734698
2,8,Argentina,8,Midfielder,Acuna Marcos,Marcos Javier,ACUÑA,ACUÑA,10/28/1991 0:00,Sevilla FC (ESP),172,"Zapala, Neuquén, Argentina",-38.9031623,-70.0649014,10,10,Argentina,AR,Argentina,AR,138.7513483
3,6,Argentina,6,Defender,Pezzella German,Germán Alejo,PEZZELLA,PEZZELLA,6/27/1991 0:00,Real Betis (ESP),190,"Bahía Blanca, Argentina",-38.7183177,-62.2663478,10,10,Argentina,AR,Argentina,AR,138.7513483
4,22,Argentina,22,Forward,Martinez Lautaro,Lautaro Javier,MARTÍNEZ,L. MARTÍNEZ,8/22/1997 0:00,FC Internazionale (ITA),175,"Bahía Blanca, Argentina",-38.7183177,-62.2663478,10,10,Argentina,AR,Argentina,AR,138.7513483
5,23,Argentina,23,Goalkeeper,Martinez Emiliano,Damián Emiliano,MARTÍNEZ,E. MARTÍNEZ,9/2/1992 0:00,Aston Villa FC (ENG),195,"Mar del Plata, Argentina",-38.0054771,-57.5426106,10,10,Argentina,AR,Argentina,AR,138.7513483
12,20,Argentina,20,Midfielder,Mac Allister Alexis,Alexis,MAC ALLISTER,MAC ALLISTER,12/24/1998 0:00,Brighton & Hove Albion FC (ENG),176,"Santa Rosa, Argentina",-36.620922,-64.2912369,10,10,Argentina,AR,Argentina,AR,138.7513483
14,2,Argentina,2,Defender,Foyth Juan,Juan Marcos,FOYTH,FOYTH,1/12/1998 0:00,Villarreal CF (ESP),188,"La Plata, Argentina",-34.9204948,-57.9535657,10,10,Argentina,AR,Argentina,AR,138.7513483
15,12,Argentina,12,Goalkeeper,Rulli Geronimo,Geronimo,RULLI,RULLI,5/20/1992 0:00,Villarreal CF (ESP),189,"La Plata, Argentina",-34.9204948,-57.9535657,10,10,Argentina,AR,Argentina,AR,138.7513483
27,4,Argentina,4,Defender,Montiel Gonzalo,Gonzalo Ariel,MONTIEL,MONTIEL,1/1/1997 0:00,Sevilla FC (ESP),175,"González Catán, Argentina",-34.7624548,-58.6315295,10,10,Argentina,AR,Argentina,AR,138.7513483
30,5,Argentina,5,Midfielder,Paredes Leandro,Leandro Daniel,PAREDES,PAREDES,6/29/1994 0:00,Juventus FC (ITA),182,"San Justo, Argentina",-34.6874084,-58.5632629,10,10,Argentina,AR,Argentina,AR,138.7513483
31,7,Argentina,7,Midfielder,De Paul Rodrigo,Rodrigo Javier,DE PAUL,DE PAUL,5/24/1994 0:00,CA Atlético Madrid (ESP),180,"Sarandí, Argentina",-34.6832581,-58.3439941,10,10,Argentina,AR,Argentina,AR,138.7513483
33,3,Argentina,3,Defender,Tagliafico Nicolas,Nicolás Alejandro,TAGLIAFICO,TAGLIAFICO,8/31/1992 0:00,Olympique Lyon (FRA),172,"Buenos Aires, Argentina",-34.6036844,-58.3815591,10,10,Argentina,AR,Argentina,AR,138.7513483
34,17,Argentina,17,Midfielder,Gomez Alejandro,Alejandro Dario,GÓMEZ,GÓMEZ,2/15/1988 0:00,Sevilla FC (ESP),167,"Buenos Aires, Argentina",-34.6036844,-58.3815591,10,10,Argentina,AR,Argentina,AR,138.7513483
35,19,Argentina,19,Defender,Otamendi Nicolas,Nicolas Hernan Gonzalo,OTAMENDI,OTAMENDI,2/12/1988 0:00,SL Benca (POR),183,"Buenos Aires, Argentina",-34.6036844,-58.3815591,10,10,Argentina,AR,Argentina,AR,138.7513483
36,754,Uruguay,1,Goalkeeper,Muslera Fernando,Nestor Fernando,MUSLERA MICOL,F. MUSLERA,6/16/1986 0:00,Galatasaray SK (TUR),190,"Buenos Aires, Argentina",-34.6036844,-58.3815591,10,10,Argentina,AR,Argentina,AR,138.7513483
38,24,Argentina,24,Midfielder,Fernandez Enzo,Enzo Jeremías,FERNÁNDEZ,E. FERNÁNDEZ,1/17/2001 0:00,SL Benca (POR),178,"San Martín, Argentina",-34.5757521,-58.5370965,10,10,Argentina,AR,Argentina,AR,138.7513483
42,15,Argentina,15,Forward,Gonzalez Nicolas,Nicolas Ivan,GONZALEZ,N. GONZALEZ,4/6/1998 0:00,ACF Fiorentina (ITA),180,"Escobar, Argentina",-34.3321464,-58.7831534,10,10,Argentina,AR,Argentina,AR,138.7513483
52,25,Argentina,25,Defender,Martinez Lisandro,Lisandro,MARTÍNEZ,MARTÍNEZ,1/18/1998 0:00,Manchester United FC (ENG),175,"Gualeguay, Argentina",-33.1503285,-59.3104685,10,10,Argentina,AR,Argentina,AR,138.7513483
54,1,Argentina,1,Goalkeeper,Armani Franco,Franco,ARMANI,ARMANI,10/16/1986 0:00,CA River Plate (ARG),189,"Casilda, Santa Fe, Argentina",-33.044522,-61.1650211,10,10,Argentina,AR,Argentina,AR,138.7513483
56,10,Argentina,10,Forward,Messi Lionel,Lionel Andres,MESSI,MESSI,6/24/1987 0:00,Paris Saint-Germain FC (FRA),170,"Rosario, Santa Fe, Argentina",-32.9587022,-60.6930416,10,10,Argentina,AR,Argentina,AR,138.7513483
57,11,Argentina,11,Forward,Di Maria Angel,Angel Fabian,DI MARIA,DI MARIA,2/14/1988 0:00,Juventus FC (ITA),178,"Rosario, Argentina",-32.9587022,-60.6930416,10,10,Argentina,AR,Argentina,AR,138.7513483
58,235,Ecuador,1,Goalkeeper,Galindez Hernan,Hernan Ismael,GALINDEZ,GALINDEZ,3/30/1987 0:00,SD Aucas (ECU),189,"Rosario, Argentina",-32.9587022,-60.6930416,10,10,Argentina,AR,Argentina,AR,138.7513483
59,452,Mexico,11,Forward,Funes Mori Rogelio,Rogelio Gabriel,FUNES MORI,R. FUNES MORI,3/5/1991 0:00,CF Monterrey (MEX),186,"Mendoza, Argentina",-32.8894587,-68.8458386,10,10,Argentina,AR,Argentina,AR,138.7513483
61,26,Argentina,26,Defender,Molina Nahuel,Nahuel,MOLINA LUCERO,MOLINA,4/6/1998 0:00,CA Atlético Madrid (ESP),178,"Embalse, Argentina",-32.204975,-64.4008877,10,10,Argentina,AR,Argentina,AR,138.7513483
62,21,Argentina,21,Forward,Dybala Paulo,Paulo Exequiel,DYBALA,DYBALA,11/15/1993 0:00,AS Roma (ITA),177,"Laguna Larga, Córdoba, Argentina",-31.7768475,-63.7998764,10,10,Argentina,AR,Argentina,AR,138.7513483
63,9,Argentina,9,Forward,Alvarez Julian,Julian,ALVAREZ,J. ALVAREZ,1/31/2000 0:00,Manchester City FC (ENG),170,"Calchín, Córdoba, Argentina",-31.6682192,-63.199948,10,10,Argentina,AR,Argentina,AR,138.7513483
64,13,Argentina,13,Defender,Romero Cristian,Cristian Gabriel,ROMERO,ROMERO,4/27/1998 0:00,Tottenham Hotspur FC (ENG),185,"Córdoba, Argentina",-31.4200833,-64.1887761,10,10,Argentina,AR,Argentina,AR,138.7513483
73,16,Argentina,16,Forward,Correa Joaquin,Carlos Joaquin,CORREA,J. CORREA,8/13/1994 0:00,FC Internazionale (ITA),188,"Juan Bautista Alberdi, Argentina",-27.5860327,-65.6240762,10,10,Argentina,AR,Argentina,AR,138.7513483
74,14,Argentina,14,Midfielder,Palacios Exequiel,Exequiel Alejandro,PALACIOS,PALACIOS,10/5/1998 0:00,Bayer 04 Leverkusen (GER),177,"Famaillá, Tucumán, Argentina",-27.0560551,-65.4021683,10,10,Argentina,AR,Argentina,AR,138.7513483
75,18,Argentina,18,Midfielder,Rodriguez Guido,Guido,RODRIGUEZ,G. RODRIGUEZ,4/12/1994 0:00,Real Betis (ESP),186,"Sáenz Peña, Argentina",-26.8004428,-60.4312354,10,10,Argentina,AR,Argentina,AR,138.7513483
1,29,Australia,3,Defender,Atkinson Nathaniel,Nathaniel Caleb,ATKINSON,ATKINSON,6/13/1999 0:00,Heart Of Midlothian FC (SCO),181,"Launceston, Tasmania, Australia",-41.439068,147.1357671,13,13,Australia,AU,Australia,AU,252.1652377
6,36,Australia,10,Midfielder,Hrustic Ajdin,Ajdin,HRUSTIC,HRUSTIC,7/5/1996 0:00,Hellas Verona FC (ITA),180,"Dandenong, Victoria, Australia",-37.9847811,145.2139907,13,13,Australia,AU,Australia,AU,252.1652377
7,33,Australia,7,Forward,Leckie Mathew,Mathew Allan,LECKIE,LECKIE,2/4/1991 0:00,Melbourne City FC (AUS),181,"Melbourne, Victoria, Australia",-37.8136276,144.9630576,13,13,Australia,AU,Australia,AU,252.1652377
8,34,Australia,8,Defender,Wright Bailey,Bailey Colin,WRIGHT,WRIGHT,7/28/1992 0:00,Sunderland AFC (ENG),184,"Melbourne, Victoria, Australia",-37.8136276,144.9630576,13,13,Australia,AU,Australia,AU,252.1652377
9,42,Australia,16,Defender,Behich Aziz,Aziz,BEHICH,BEHICH,12/16/1990 0:00,Dundee United FC (SCO),170,"Melbourne, Victoria, Australia",-37.8136276,144.9630576,13,13,Australia,AU,Australia,AU,252.1652377
10,48,Australia,22,Midfielder,Irvine Jackson,Jackson Alexander,IRVINE,IRVINE,3/7/1993 0:00,FC St. Pauli (GER),189,"Melbourne, Australia",-37.8136276,144.9630576,13,13,Australia,AU,Australia,AU,252.1652377
11,35,Australia,9,Forward,Maclaren Jamie,Jamie,MACLAREN,MACLAREN,7/29/1993 0:00,Melbourne City FC (AUS),179,"Sunbury, Victoria, Australia",-37.5787769,144.7116286,13,13,Australia,AU,Australia,AU,252.1652377
13,49,Australia,23,Forward,Goodwin Craig,Craig Alexander,GOODWIN,GOODWIN,12/16/1991 0:00,Adelaide United FC (AUS),183,"Adelaide, Australia",-34.9284989,138.6007456,13,13,Australia,AU,Australia,AU,252.1652377
32,30,Australia,4,Defender,Rowles Kye,Kye Francis,ROWLES,ROWLES,6/24/1998 0:00,Heart Of Midlothian FC (SCO),185,"Kiama, New South Wales, Australia",-34.669198,150.8528343,13,13,Australia,AU,Australia,AU,252.1652377
37,40,Australia,14,Midfielder,Mcgree Riley,Riley Patrick,MCGREE,MCGREE,11/2/1998 0:00,Middlesbrough FC (ENG),178,"Gawler, Australia",-34.5972074,138.7490985,13,13,Australia,AU,Australia,AU,252.1652377
41,50,Australia,24,Defender,King Joel,Joel Bruce,KING,KING,10/30/2000 0:00,Odense BK (DEN),179,"Figtree, New South Wales, Australia",-34.4357271,150.8612708,13,13,Australia,AU,Australia,AU,252.1652377
45,41,Australia,15,Forward,Duke Mitchell,Mitchell Thomas,DUKE,DUKE,1/18/1991 0:00,Fagiano Okayama (JPN),182,"Liverpool, New South Wales, Australia",-33.9285567,150.9179595,13,13,Australia,AU,Australia,AU,252.1652377
47,39,Australia,13,Midfielder,Mooy Aaron,Aaron Frank,MOOY,MOOY,9/15/1990 0:00,Celtic FC (SCO),174,"Sydney, New South Wales, Australia",-33.8688197,151.2092955,13,13,Australia,AU,Australia,AU,252.1652377
48,43,Australia,17,Midfielder,Devlin Cameron,Cameron Peter,DEVLIN,DEVLIN,6/7/1998 0:00,Heart Of Midlothian FC (SCO),171,"Sydney, Australia",-33.8688197,151.2092955,13,13,Australia,AU,Australia,AU,252.1652377
49,44,Australia,18,Goalkeeper,Vukovic Danny,Daniel,VUKOVIC,VUKOVIC,3/27/1985 0:00,Central Coast Mariners FC (AUS),187,"Sydney, New South Wales, Australia",-33.8688197,151.2092955,13,13,Australia,AU,Australia,AU,252.1652377
50,27,Australia,1,Goalkeeper,Ryan Mathew,Mathew David,RYAN,RYAN,4/8/1992 0:00,FC København (DEN),184,"Plumpton, New South Wales, Australia",-33.7514593,150.8412545,13,13,Australia,AU,Australia,AU,252.1652377
51,38,Australia,12,Goalkeeper,Redmayne Andrew,Andrew James,REDMAYNE,REDMAYNE,1/13/1989 0:00,Sydney FC (AUS),194,"Gosford, Australia",-33.426667,151.341667,13,13,Australia,AU,Australia,AU,252.1652377
595,190,Croatia,8,Midfielder,Kovacic Mateo,Mateo,KOVAČIĆ,KOVAČIĆ,5/6/1994 0:00,Chelsea FC (ENG),177,"Linz, Austria",48.30694,14.28583,14,14,Austria,AT,Austria,AT,22.0679371
596,207,Croatia,25,Midfielder,Sucic Luka,Luka,SUČIĆ,SUČIĆ,9/8/2002 0:00,FC Red Bull Salzburg (AUT),185,"Linz, Austria",48.30694,14.28583,14,14,Austria,AT,Austria,AT,22.0679371
280,579,Qatar,8,Midfielder,Ali Asad,Ali Asadalla Q B,THAIMN,ALI,1/19/1993 0:00,Al Sadd SC (QAT),174,"Manama, Bahrain",26.2235305,50.5875935,18,18,Bahrain,BH,Bahrain,BH,1.653725953
640,73,Belgium,21,Midfielder,Castagne Timothy,Timothy,CASTAGNE,CASTAGNE,12/5/1995 0:00,Leicester City FC (ENG),185,"Arlon, Belgium",49.6855173,5.8104435,22,22,Belgium,BE,Belgium,BE,11.99900272
645,67,Belgium,15,Midfielder,Meunier Thomas,Thomas Andre A.,MEUNIER,MEUNIER,9/12/1991 0:00,Borussia Dortmund (GER),190,"Sainte-Ode, Belgium",50.036996,5.5485704,22,22,Belgium,BE,Belgium,BE,11.99900272
656,62,Belgium,10,Forward,Hazard Eden,Eden Michael W.,HAZARD,E. HAZARD,1/7/1991 0:00,Real Madrid CF (ESP),173,"La Louvière, Belgium",50.4766336,4.1814641,22,22,Belgium,BE,Belgium,BE,11.99900272
657,68,Belgium,16,Midfielder,Hazard Thorgan,Thorgan Ganael F.,HAZARD,T. HAZARD,3/29/1993 0:00,Borussia Dortmund (GER),174,"La Louvière, Belgium",50.4766336,4.1814641,22,22,Belgium,BE,Belgium,BE,11.99900272
658,482,Morocco,15,Midfielder,Amallah Selim,Selim,AMALLAH,AMALLAH,11/15/1996 0:00,Standard Liège (BEL),186,"Hautrage, Belgium",50.4792056,3.7659709,22,22,Belgium,BE,Belgium,BE,11.99900272
662,55,Belgium,3,Defender,Theate Arthur,Arthur Nicolas R.,THEATE,THEATE,5/25/2000 0:00,Stade Rennais FC (FRA),185,"Liège, Belgium",50.6329586,5.5697498,22,22,Belgium,BE,Belgium,BE,11.99900272
663,58,Belgium,6,Midfielder,Witsel Axel,Axel Laurent A.,WITSEL,WITSEL,1/12/1989 0:00,CA Atlético Madrid (ESP),186,"Liège, Belgium",50.6329586,5.5697498,22,22,Belgium,BE,Belgium,BE,11.99900272
664,76,Belgium,24,Forward,Openda Lois,Ikoma-Loïs,OPENDA,OPENDA,2/16/2000 0:00,RC Lens (FRA),175,"Liège, Belgium",50.6329586,5.5697498,22,22,Belgium,BE,Belgium,BE,11.99900272
668,78,Belgium,26,Defender,Debast Zeno,Zeno Koen,DEBAST,DEBAST,10/24/2003 0:00,RSC Anderlecht (BEL),189,"Halle, Belgium",50.7381601,4.2337053,22,22,Belgium,BE,Belgium,BE,11.99900272
670,60,Belgium,8,Midfielder,Tielemans Youri,Youri Marion A.,TIELEMANS,TIELEMANS,5/7/1997 0:00,Leicester City FC (ENG),176,"Sint-Pieters-Leeuw, Belgium",50.780993,4.245613,22,22,Belgium,BE,Belgium,BE,11.99900272
672,64,Belgium,12,Goalkeeper,Mignolet Simon,Simon Luc M.,MIGNOLET,MIGNOLET,3/6/1988 0:00,Club Brugge (BEL),193,"Sint-Truiden, Belgium",50.818835,5.1819977,22,22,Belgium,BE,Belgium,BE,11.99900272
673,70,Belgium,18,Midfielder,Onana Amadou,Amadou Ba Z.,MVOM ONANA,ONANA,8/16/2001 0:00,Everton FC (ENG),192,"City of Brussels, Belgium",50.8476424,4.3571696,22,22,Belgium,BE,Belgium,BE,11.99900272
674,75,Belgium,23,Forward,Batshuayi Michy,Michy,BATSHUAYI-ATUNGA,BATSHUAYI,10/2/1993 0:00,Fenerbahce SK (TUR),185,"Brussels, Belgium",50.8476424,4.3571696,22,22,Belgium,BE,Belgium,BE,11.99900272
675,66,Belgium,14,Forward,Mertens Dries,Dries,MERTENS,MERTENS,5/6/1987 0:00,Galatasaray SK (TUR),169,"Leuven, Belgium",50.8822871,4.7137645,22,22,Belgium,BE,Belgium,BE,11.99900272
676,341,Ghana,3,Defender,Odoi Denis,Denis Frimpong,ODOI,ODOI,5/27/1988 0:00,Club Brugge (BEL),178,"Leuven, Belgium",50.8822871,4.7137645,22,22,Belgium,BE,Belgium,BE,11.99900272
677,71,Belgium,19,Defender,Dendoncker Leander,Leander,DENDONCKER,DENDONCKER,4/15/1995 0:00,Aston Villa FC (ENG),188,"Passendale, Belgium",50.9002575,3.0207328,22,22,Belgium,BE,Belgium,BE,11.99900272
678,490,Morocco,23,Midfielder,El Khannouss Bilal,Bilal,EL KHANNOUSS,EL KHANNOUSS,5/10/2004 0:00,KRC Genk (BEL),180,"Strombeek-Bever, Belgium",50.9103739,4.35564,22,22,Belgium,BE,Belgium,BE,11.99900272
680,63,Belgium,11,Forward,Carrasco Yannick,Yannick,FERREIRA CARRASCO,CARRASCO,9/4/1993 0:00,CA Atlético Madrid (ESP),180,"Vilvoorde, Belgium",50.926454,4.4258375,22,22,Belgium,BE,Belgium,BE,11.99900272
682,69,Belgium,17,Forward,Trossard Leandro,Leandro,TROSSARD,TROSSARD,12/4/1994 0:00,Brighton & Hove Albion FC (ENG),172,"Maasmechelen, Belgium",50.9797203,5.701778,22,22,Belgium,BE,Belgium,BE,11.99900272
683,65,Belgium,13,Goalkeeper,Casteels Koen,Koen,CASTEELS,CASTEELS,6/25/1992 0:00,VfL Wolfsburg (GER),197,"Bonheiden, Belgium",51.0222566,4.5481496,22,22,Belgium,BE,Belgium,BE,11.99900272
684,59,Belgium,7,Midfielder,De Bruyne Kevin,Kevin,DE BRUYNE,DE BRUYNE,6/28/1991 0:00,Manchester City FC (ENG),181,"Drongen, Belgium",51.05048,3.6633,22,22,Belgium,BE,Belgium,BE,11.99900272
685,53,Belgium,1,Goalkeeper,Courtois Thibaut,Thibaut Nicolas M.,COURTOIS,COURTOIS,5/11/1992 0:00,Real Madrid CF (ESP),199,"Bree, Belgium",51.1399244,5.5965788,22,22,Belgium,BE,Belgium,BE,11.99900272
687,57,Belgium,5,Defender,Vertonghen Jan,Jan Bert L.,VERTONGHEN,VERTONGHEN,4/24/1987 0:00,RSC Anderlecht (BEL),189,"Sint-Niklaas, Belgium",51.1653295,4.1386501,22,22,Belgium,BE,Belgium,BE,11.99900272
688,56,Belgium,4,Defender,Faes Wout,Wout Felix L.,FAES,FAES,4/3/1998 0:00,Leicester City FC (ENG),187,"Mol, Belgium",51.1872257,5.1154096,22,22,Belgium,BE,Belgium,BE,11.99900272
690,74,Belgium,22,Forward,De Ketelaere Charles,Charles Marc S.,DE KETELAERE,DE KETELAERE,3/10/2001 0:00,AC Milan (ITA),192,"Bruges, Belgium",51.2091807,3.2247552,22,22,Belgium,BE,Belgium,BE,11.99900272
691,54,Belgium,2,Defender,Alderweireld Toby,Tobias Albertine M.,ALDERWEIRELD,ALDERWEIRELD,3/2/1989 0:00,Royal Antwerp FC (BEL),186,"Antwerp, Belgium",51.2213404,4.4051485,22,22,Belgium,BE,Belgium,BE,11.99900272
692,61,Belgium,9,Forward,Lukaku Romelu,Romelu,LUKAKU BOLINGOLI,R. LUKAKU,5/13/1993 0:00,FC Internazionale (ITA),190,"Antwerp, Belgium",51.2213404,4.4051485,22,22,Belgium,BE,Belgium,BE,11.99900272
693,77,Belgium,25,Forward,Doku Jeremy,Jeremy Baffour,DOKU,DOKU,5/27/2002 0:00,Stade Rennais FC (FRA),173,"Antwerp, Belgium",51.2213404,4.4051485,22,22,Belgium,BE,Belgium,BE,11.99900272
694,480,Morocco,13,Midfielder,Chair Ilias,Ilias,CHAIR,CHAIR,10/30/1997 0:00,Queens Park Rangers FC (ENG),164,"Antwerp, Belgium",51.2213404,4.4051485,22,22,Belgium,BE,Belgium,BE,11.99900272
695,72,Belgium,20,Midfielder,Vanaken Hans,Hans,VANAKEN,VANAKEN,8/24/1992 0:00,Club Brugge (BEL),195,"Pelt, Belgium",51.2284366,5.4342638,22,22,Belgium,BE,Belgium,BE,11.99900272
466,198,Croatia,16,Forward,Petkovic Bruno,Bruno,PETKOVIĆ,PETKOVIĆ,9/16/1994 0:00,GNK Dinamo Zagreb (CRO),193,"Metković, Croatia",43.0532801,17.6493431,29,29,Bosnia and Herzegovina,BA,Bosnia and Herzegovina,BA,13.0905842
469,206,Croatia,24,Defender,Sutalo Josip,Josip,ŠUTALO,ŠUTALO,2/28/2000 0:00,GNK Dinamo Zagreb (CRO),190,"Čapljina, Bosnia and Herzegovina",43.1118267,17.7054838,29,29,Bosnia and Herzegovina,BA,Bosnia and Herzegovina,BA,13.0905842
516,188,Croatia,6,Defender,Lovren Dejan,Dejan,LOVREN,LOVREN,7/5/1989 0:00,FC Zenit St. Petersburg (RUS),188,"Zenica, SR Bosnia and Herzegovina, SFR Yugoslavia",44.2034392,17.9077432,29,29,Bosnia and Herzegovina,BA,Bosnia and Herzegovina,BA,13.0905842
517,199,Croatia,17,Forward,Budimir Ante,Ante,BUDIMIR,BUDIMIR,7/22/1991 0:00,CA Osasuna (ESP),190,"Zenica, SR Bosnia and Herzegovina, SFR Yugoslavia",44.2034392,17.9077432,29,29,Bosnia and Herzegovina,BA,Bosnia and Herzegovina,BA,13.0905842
524,664,Serbia,15,Defender,Babic Srdjan,Srđan,BABIĆ,BABIĆ,4/22/1996 0:00,UD Almería (ESP),195,"Banja Luka, Bosnia and Herzegovina",44.7721811,17.191,29,29,Bosnia and Herzegovina,BA,Bosnia and Herzegovina,BA,13.0905842
69,89,Brazil,11,Forward,Raphinha,Raphael,DIAS BELLOLI,RAPHINHA,12/14/1996 0:00,FC Barcelona (ESP),176,"Porto Alegre, Brazil",-30.0368176,-51.2089887,32,32,Brazil,BR,Brazil,BR,248.7567149
71,79,Brazil,1,Goalkeeper,Alisson,Alisson Ramsés,BECKER,A. BECKER,10/2/1992 0:00,Liverpool FC (ENG),193,"Novo Hamburgo, Brazil",-29.6834874,-51.1337575,32,32,Brazil,BR,Brazil,BR,248.7567149
72,94,Brazil,16,Defender,Alex Telles,Alex,NICOLAO TELLES,ALEX TELLES,12/15/1992 0:00,Sevilla FC (ESP),181,"Caxias do Sul, Rio Grande do Sul, Brazil",-29.1740137,-51.1812032,32,32,Brazil,BR,Brazil,BR,248.7567149
76,82,Brazil,4,Defender,Marquinhos,Marcos,AOAS CORREA,MARQUINHOS,5/14/1994 0:00,Paris Saint-Germain FC (FRA),183,"São Paulo, Brazil",-23.5557714,-46.6395571,32,32,Brazil,BR,Brazil,BR,248.7567149
77,96,Brazil,18,Forward,Gabriel Jesus,Gabriel Fernando,DE JESUS,G. JESUS,4/3/1997 0:00,Arsenal FC (ENG),175,"São Paulo, Brazil",-23.5557714,-46.6395571,32,32,Brazil,BR,Brazil,BR,248.7567149
78,88,Brazil,10,Forward,Neymar,Neymar,DA SILVA SANTOS JUNIOR,NEYMAR JR,2/5/1992 0:00,Paris Saint-Germain FC (FRA),175,"Mogi das Cruzes, Brazil",-23.5393849,-46.216729,32,32,Brazil,BR,Brazil,BR,248.7567149
79,97,Brazil,19,Forward,Antony,Antony Matheus,DOS SANTOS,ANTONY,2/24/2000 0:00,Manchester United FC (ENG),172,"Osasco, Brazil",-23.533385,-46.7914568,32,32,Brazil,BR,Brazil,BR,248.7567149
80,99,Brazil,21,Forward,Rodrygo,Rodrygo,SILVA DE GOES,RODRYGO,1/9/2001 0:00,Real Madrid CF (ESP),174,"Osasco, Brazil",-23.533385,-46.7914568,32,32,Brazil,BR,Brazil,BR,248.7567149
81,101,Brazil,23,Goalkeeper,Ederson,Ederson,SANTANA DE MORAES,EDERSON,8/17/1993 0:00,Manchester City FC (ENG),188,"Osasco, Brazil",-23.533385,-46.7914568,32,32,Brazil,BR,Brazil,BR,248.7567149
82,104,Brazil,26,Forward,Gabriel Martinelli,Gabriel,TEODORO MARTINELLI SILVA,MARTINELLI,6/18/2001 0:00,Arsenal FC (ENG),178,"Guarulhos, Brazil",-23.4543137,-46.5336643,32,32,Brazil,BR,Brazil,BR,248.7567149
83,100,Brazil,22,Midfielder,Everton Ribeiro,Everton Augusto,DE BARROS RIBEIRO,E. RIBEIRO,4/10/1989 0:00,CR Flamengo (BRA),174,"Arujá, São Paulo, Brazil",-23.3951365,-46.3227109,32,32,Brazil,BR,Brazil,BR,248.7567149
84,83,Brazil,5,Midfielder,Casemiro,Carlos Henrique,CASIMIRO,CASEMIRO,2/23/1992 0:00,Manchester United FC (ENG),185,"São José dos Campos, São Paulo, Brazil",-23.2198396,-45.8915658,32,32,Brazil,BR,Brazil,BR,248.7567149
85,93,Brazil,15,Midfielder,Fabinho,Fabio Henrique,TAVARES,FABINHO,10/23/1993 0:00,Liverpool FC (ENG),188,"Campinas, Brazil",-22.9050824,-47.0613327,32,32,Brazil,BR,Brazil,BR,248.7567149
86,81,Brazil,3,Defender,Thiago Silva,Thiago,EMILIANO DA SILVA,T. SILVA,9/22/1984 0:00,Chelsea FC (ENG),183,"Rio de Janeiro, Brazil",-22.9068467,-43.1728965,32,32,Brazil,BR,Brazil,BR,248.7567149
87,85,Brazil,7,Midfielder,Lucas Paqueta,Lucas,TOLENTINO COELHO DE LIMA,L. PAQUETÁ,8/27/1997 0:00,West Ham United FC (ENG),180,"Rio de Janeiro, Brazil",-22.9068467,-43.1728965,32,32,Brazil,BR,Brazil,BR,248.7567149
88,95,Brazil,17,Midfielder,Bruno Guimaraes,Bruno,GUIMARÃES RODRIGUEZ MOURA,BRUNO G.,11/16/1997 0:00,Newcastle United FC (ENG),182,"Rio de Janeiro, Brazil",-22.9068467,-43.1728965,32,32,Brazil,BR,Brazil,BR,248.7567149
89,103,Brazil,25,Forward,Pedro,Pedro Guilherme,ABREU DOS SANTOS,PEDRO,6/20/1997 0:00,CR Flamengo (BRA),185,"Rio de Janeiro, Brazil",-22.9068467,-43.1728965,32,32,Brazil,BR,Brazil,BR,248.7567149
90,568,Portugal,23,Midfielder,Matheus Nunes,Matheus Luís,NUNES,MATHEUS N.,8/27/1998 0:00,Wolverhampton Wanderers FC (ENG),181,"Rio de Janeiro, Brazil ",-22.9068467,-43.1728965,32,32,Brazil,BR,Brazil,BR,248.7567149
91,98,Brazil,20,Forward,Vinicius Junior,Vinicius José,PAIXÃO DE OLIVEIRA JÚNIOR,VINI JR,7/12/2000 0:00,Real Madrid CF (ESP),176,"São Gonçalo, Brazil",-22.8233781,-43.0462495,32,32,Brazil,BR,Brazil,BR,248.7567149
92,80,Brazil,2,Defender,Danilo,Danilo Luiz,DA SILVA,DANILO,7/15/1991 0:00,Juventus FC (ITA),184,"Bicas, Brazil",-21.7171992,-43.062821,32,32,Brazil,BR,Brazil,BR,248.7567149
93,84,Brazil,6,Defender,Alex Sandro,Alex Sandro,LOBO SILVA,ALEX SANDRO,1/26/1991 0:00,Juventus FC (ITA),180,"Catanduva, São Paulo, Brazil",-21.1374204,-48.973923,32,32,Brazil,BR,Brazil,BR,248.7567149
94,92,Brazil,14,Defender,Eder Militao,Éder Gabriel,MILITÃO,E. MILITÃO,1/18/1998 0:00,Real Madrid CF (ESP),186,"Sertãozinho, São Paulo, Brazil",-21.1323761,-47.9945265,32,32,Brazil,BR,Brazil,BR,248.7567149
95,86,Brazil,8,Midfielder,Fred,Frederico,RODRIGUES DE PAULA SANTOS,FRED,3/5/1993 0:00,Manchester United FC (ENG),169,"Belo Horizonte, Brazil",-19.919052,-43.9386685,32,32,Brazil,BR,Brazil,BR,248.7567149
96,87,Brazil,9,Forward,Richarlison,Richarlison,DE ANDRADE,RICHARLISON,5/10/1997 0:00,Tottenham Hotspur FC (ENG),184,"Nova Venécia, Espírito Santo, Brazil",-18.7084516,-40.3955098,32,32,Brazil,BR,Brazil,BR,248.7567149
97,102,Brazil,24,Defender,Bremer,Gleison Bremer,SILVA NASCIMENTO,BREMER,3/18/1997 0:00,Juventus FC (ITA),188,"Itapitanga, Brazil",-14.4214383,-39.5673464,32,32,Brazil,BR,Brazil,BR,248.7567149
98,90,Brazil,12,Goalkeeper,Weverton,Weverton,PEREIRA DA SILVA,WEVERTON,12/13/1987 0:00,SE Palmeiras (BRA),189,"Rio Branco, Acre, Brazil",-9.9740249,-67.8098191,32,32,Brazil,BR,Brazil,BR,248.7567149
99,548,Portugal,3,Defender,Pepe,Kepler Laveran,DE LIMA FERREIRA,PEPE,2/26/1983 0:00,FC Porto (POR),188,"Maceió, Brazil",-9.6660417,-35.7352167,32,32,Brazil,BR,Brazil,BR,248.7567149
100,91,Brazil,13,Defender,Dani Alves,Daniel,ALVES DA SILVA,DANI ALVES,5/6/1983 0:00,Pumas UNAM (MEX),172,"Juazeiro, Bahia, Brazil",-9.4312697,-40.5078709,32,32,Brazil,BR,Brazil,BR,248.7567149
102,570,Portugal,25,Midfielder,Otavio,Otávio Edmilson,DA SILVA MONTEIRO,OTÁVIO,2/9/1995 0:00,FC Porto (POR),172,"João Pessoa, Brazil",-7.1188352,-34.8814339,32,32,Brazil,BR,Brazil,BR,248.7567149
146,145,Canada,15,Midfielder,Kone Ismael,Ismael Kenneth Jordan,KONE,KONE,6/16/2002 0:00,CF Montréal (CAN),188,"Abidjan, Ivory Coast",5.3599517,-4.0082563,57,57,Côte d'Ivoire,CI,Côte d'Ivoire,CI,31.57675156
159,299,France,13,Defender,Fofana Youssouf,Youssouf,FOFANA,FOFANA,1/10/1999 0:00,AS Monaco (FRA),178,"Divo, Ivory Coast",5.8415399,-5.3625516,57,57,Côte d'Ivoire,CI,Côte d'Ivoire,CI,31.57675156
131,106,Cameroon,2,Defender,Ngom Mbekeli Jerome,Jerome,NGOM MBEKELI,NGOM,9/30/1998 0:00,Colombe Sportive (CMR),174,"Yaoundé, Cameroon",3.8480325,11.5020752,41,41,Cameroon,CM,Cameroon,CM,41.96059557
132,107,Cameroon,3,Defender,Nkoulou Nicolas,Nicolas Julio,NKOULOU NDOUBENA,NKOULOU,3/27/1990 0:00,Aris Thessaloniki FC (GRE),185,"Yaoundé, Cameroon",3.8480325,11.5020752,41,41,Cameroon,CM,Cameroon,CM,41.96059557
133,109,Cameroon,5,Midfielder,Ondoua Gael,Gael,BELLA ONDOUA,ONDOUA,11/4/1995 0:00,Hannover 96 (GER),185,"Yaoundé, Cameroon",3.8480325,11.5020752,41,41,Cameroon,CM,Cameroon,CM,41.96059557
134,110,Cameroon,6,Forward,Moumi Ngamaleu Nicolas,Nicolas Brice,MOUMI NGAMALEU,NGAMALEU,7/9/1994 0:00,FC Dynamo Moscow (RUS),181,"Yaoundé, Cameroon",3.8480325,11.5020752,41,41,Cameroon,CM,Cameroon,CM,41.96059557
135,112,Cameroon,8,Midfielder,Zambo Anguissa Andre-frank,Andre Frank,ZAMBO ANGUISSA,ANGUISSA,11/16/1995 0:00,SSC Napoli (ITA),184,"Yaoundé, Cameroon",3.8480325,11.5020752,41,41,Cameroon,CM,Cameroon,CM,41.96059557
136,114,Cameroon,10,Forward,Aboubakar Vincent,Vincent,ABOUBAKAR,ABOUBAKAR,1/22/1992 0:00,Al Nassr FC (KSA),176,"Yaoundé, Cameroon",3.8480325,11.5020752,41,41,Cameroon,CM,Cameroon,CM,41.96059557
137,122,Cameroon,18,Midfielder,Hongla Martin,Martin,HONGLA YMA II,HONGLA,3/16/1998 0:00,Hellas Verona FC (ITA),182,"Yaoundé, Cameroon",3.8480325,11.5020752,41,41,Cameroon,CM,Cameroon,CM,41.96059557
138,338,Germany,26,Forward,Moukoko Youssoufa,Youssoufa,MOUKOKO,MOUKOKO,11/20/2004 0:00,Borussia Dortmund (GER),179,"Yaoundé, Cameroon",3.8480325,11.5020752,41,41,Cameroon,CM,Cameroon,CM,41.96059557
139,708,Switzerland,7,Forward,Embolo Breel,Breel Donald,EMBOLO,EMBOLO,2/14/1997 0:00,AS Monaco (FRA),184,"Yaoundé, Cameroon",3.8480325,11.5020752,41,41,Cameroon,CM,Cameroon,CM,41.96059557
140,118,Cameroon,14,Midfielder,Oum Gouet Samuel,Samuel Yves,OUM GOUET,OUM,12/14/1997 0:00,KV Mechelen (BEL),185,"Ayos, Cameroon",3.9056609,12.5269347,41,41,Cameroon,CM,Cameroon,CM,41.96059557
141,119,Cameroon,15,Midfielder,Kunde Pierre,Pierre,KUNDE MALONG,KUNDE MALONG,7/26/1995 0:00,Olympiacos Piraeus FC (GRE),180,"Limbe, Cameroon",4.0224656,9.1954432,41,41,Cameroon,CM,Cameroon,CM,41.96059557
142,113,Cameroon,9,Forward,Nsame Jean-pierre,Jean Pierre Junior,NSAME,NSAME,5/1/1993 0:00,BSC Young Boys (SUI),188,"Douala, Cameroon",4.0510564,9.7678687,41,41,Cameroon,CM,Cameroon,CM,41.96059557
143,115,Cameroon,11,Forward,Bassogog Christian,Christian,MOUGANG BASSOGOG,BASSOGOG,10/18/1995 0:00,Shanghai Shenhua FC (CHN),178,"Douala, Cameroon",4.0510564,9.7678687,41,41,Cameroon,CM,Cameroon,CM,41.96059557
144,121,Cameroon,17,Defender,Mbaizo Olivier,Olivier,MBAISSIDARA MBAIZO,MBAIZO,8/15/1997 0:00,Philadelphia Union (USA),178,"Douala, Cameroon",4.0510564,9.7678687,41,41,Cameroon,CM,Cameroon,CM,41.96059557
145,129,Cameroon,25,Defender,Nouhou Tolo,Tolo,NOUHOU,NOUHOU,6/23/1997 0:00,Seattle Sounders FC (USA),178,"Douala, Cameroon",4.0510564,9.7678687,41,41,Cameroon,CM,Cameroon,CM,41.96059557
157,105,Cameroon,1,Goalkeeper,Ngapandouetnbu Simon,Simon Brady,NGAPANDOUETNBU,NGAPANDOUETNBU,4/12/2003 0:00,Olympique Marseille (FRA),186,"Foumban, Cameroon",5.7204203,10.901604,41,41,Cameroon,CM,Cameroon,CM,41.96059557
161,123,Cameroon,19,Defender,Fai Collins,Ngoran Suiru,FAI COLLINS,FAI,8/13/1992 0:00,Al Tai FC (KSA),165,"Bamenda, Cameroon",5.9630513,10.1591213,41,41,Cameroon,CM,Cameroon,CM,41.96059557
166,127,Cameroon,23,Goalkeeper,Onana Andre,Andre,ONANA ONANA,ONANA,4/2/1996 0:00,FC Internazionale (ITA),190,"Nkol Ngok, Cameroon",7.369722,12.354722,41,41,Cameroon,CM,Cameroon,CM,41.96059557
168,130,Cameroon,26,Midfielder,Marou Souaibou,Souaibou,MAROU,SOUAIBOU,12/3/2000 0:00,Coton Sport FC (CMR),180,"Garoua, Cameroon",9.3226016,13.393389,41,41,Cameroon,CM,Cameroon,CM,41.96059557
460,137,Canada,7,Midfielder,Eustaquio Stephen,Stephen,EUSTÁQUIO,EUSTAQUIO,12/21/1996 0:00,FC Porto (POR),178,"Leamington, Canada",42.0531634,-82.5998874,42,42,Canada,CA,Canada,CA,2210.684826
488,135,Canada,5,Defender,Vitoria Steven,Steven,DE SOUSA VITÓRIA,VITORIA,1/11/1987 0:00,GD Chaves (POR),195,"Toronto, Canada",43.653226,-79.3831843,42,42,Canada,CA,Canada,CA,2210.684826
489,138,Canada,8,Midfielder,Fraser Liam,Liam Scott,FRASER,FRASER,2/13/1998 0:00,KMSR Deinze (BEL),185,"Toronto, Ontario, Canada",43.653226,-79.3831843,42,42,Canada,CA,Canada,CA,2210.684826
490,139,Canada,9,Forward,Cavallini Lucas,Lucas,CAVALLINI,CAVALLINI,12/28/1992 0:00,Vancouver Whitecaps FC (CAN),180,"Toronto, Ontario, Canada",43.653226,-79.3831843,42,42,Canada,CA,Canada,CA,2210.684826
491,144,Canada,14,Midfielder,Kaye Mark-anthony,Mark-Anthony,KAYE,KAYE,12/2/1994 0:00,Toronto FC (CAN),185,"Toronto, Ontario, Canada",43.653226,-79.3831843,42,42,Canada,CA,Canada,CA,2210.684826
492,151,Canada,21,Midfielder,Osorio Jonathan,Jonathan,OSORIO,OSORIO,6/12/1992 0:00,Toronto FC (CAN),175,"Toronto, Ontario, Canada",43.653226,-79.3831843,42,42,Canada,CA,Canada,CA,2210.684826
493,152,Canada,22,Defender,Laryea Richie,Richmond Mamah,LARYEA,LARYEA,1/7/1995 0:00,Toronto FC (CAN),175,"Toronto, Ontario, Canada",43.653226,-79.3831843,42,42,Canada,CA,Canada,CA,2210.684826
494,153,Canada,23,Midfielder,Millar Liam,Liam Alan,MILLAR,MILLAR,9/27/1999 0:00,FC Basel (SUI),176,"Toronto, Ontario, Canada",43.653226,-79.3831843,42,42,Canada,CA,Canada,CA,2210.684826
499,140,Canada,10,Midfielder,Hoilett Junior,David Wayne,HOILETT,HOILETT,6/5/1990 0:00,Reading FC (ENG),174,"Brampton, Ontario, Canada",43.7315479,-79.7624177,42,42,Canada,CA,Canada,CA,2210.684826
500,141,Canada,11,Forward,Buchanan Tajon,Tajon Trevor,BUCHANAN,BUCHANAN,2/8/1999 0:00,Club Brugge (BEL),183,"Brampton, Ontario, Canada",43.7315479,-79.7624177,42,42,Canada,CA,Canada,CA,2210.684826
501,143,Canada,13,Midfielder,Hutchinson Atiba,Atiba,HUTCHINSON,HUTCHINSON,2/8/1983 0:00,Besiktas JK (TUR),183,"Brampton, Ontario, Canada",43.7315479,-79.7624177,42,42,Canada,CA,Canada,CA,2210.684826
502,147,Canada,17,Forward,Larin Cyle,Cyle Christopher,LARIN,LARIN,4/17/1995 0:00,Club Brugge (BEL),188,"Brampton, Ontario, Canada",43.7315479,-79.7624177,42,42,Canada,CA,Canada,CA,2210.684826
503,134,Canada,4,Defender,Miller Kamal,Kamal Anthony,MILLER,MILLER,5/16/1997 0:00,CF Montréal (CAN),183,"Scarborough, Ontario, Canada",43.7764258,-79.2317521,42,42,Canada,CA,Canada,CA,2210.684826
504,131,Canada,1,Goalkeeper,St. Clair Dayne,Dayne Tristan,ST. CLAIR,ST. CLAIR,5/9/1997 0:00,Minnesota United FC (USA),191,"Pickering, Ontario, Canada",43.8384117,-79.0867579,42,42,Canada,CA,Canada,CA,2210.684826
505,155,Canada,25,Defender,Cornelius Derek,Derek Austin,CORNELIUS,CORNELIUS,11/25/1997 0:00,Panetolikos FC (GRE),186,"Ajax, Ontario, Canada",43.8508553,-79.0203732,42,42,Canada,CA,Canada,CA,2210.684826
534,146,Canada,16,Goalkeeper,Pantemis James,James,PANTEMIS,PANTEMIS,2/21/1997 0:00,CF Montréal (CAN),185,"Kirkland, Quebec, Canada",45.4560415,-73.8623337,42,42,Canada,CA,Canada,CA,2210.684826
536,468,Morocco,1,Goalkeeper,Bounou Yassine,Yassine,BOUNOU,BONO,4/5/1991 0:00,Sevilla FC (ESP),190,"Montreal, Quebec, Canada",45.5018869,-73.5673919,42,42,Canada,CA,Canada,CA,2210.684826
539,136,Canada,6,Midfielder,Piette Samuel,Samuel,PIETTE,PIETTE,11/12/1994 0:00,CF Montréal (CAN),171,"Le Gardeur, Quebec, Canada",45.7531515,-73.4702879,42,42,Canada,CA,Canada,CA,2210.684826
632,156,Canada,26,Defender,Waterman Joel,Joel Robert,WATERMAN,WATERMAN,1/24/1996 0:00,CF Montréal (CAN),185,"Langley, British Columbia, Canada",49.1041779,-122.6603519,42,42,Canada,CA,Canada,CA,2210.684826
633,132,Canada,2,Defender,Johnston Alistair,Alistair William,JOHNSTON,JOHNSTON,10/8/1998 0:00,CF Montréal (CAN),180,"Vancouver, British Columbia, Canada",49.2827291,-123.1207375,42,42,Canada,CA,Canada,CA,2210.684826
197,788,USA,9,Forward,Ferreira Jesus,Jesus David,FERREIRA CASTRO,FERREIRA,12/24/2000 0:00,FC Dallas (USA),175,"Santa Marta, Colombia",11.2403547,-74.2110227,51,51,Colombia,CO,Colombia,CO,70.68753225
104,302,France,16,Goalkeeper,Mandanda Steve,Steve,MANDANDA MPIDI,MANDANDA,3/28/1985 0:00,Stade Rennais FC (FRA),187,"Kinshasa, Zaire",-4.4419311,15.2662931,54,54,Congo DRC,CD,"Congo, The Democratic Republic of the",CD,83.43164509
169,157,Costa Rica,1,Goalkeeper,Navas Keylor,Keilor Antonio,NAVAS GAMBOA,K. NAVAS,12/15/1986 0:00,Paris Saint-Germain FC (FRA),185,"Pérez Zeledón, Costa Rica",9.35473,-83.634843,56,56,Costa Rica,CR,Costa Rica,CR,14.7173255
173,158,Costa Rica,2,Midfielder,Chacon Daniel,Daniel Alonso,CHACÓN SALAS,D. CHACÓN,4/11/2001 0:00,Colorado Rapids (USA),183,"Turrialba, Costa Rica",9.9067054,-83.6800512,56,56,Costa Rica,CR,Costa Rica,CR,14.7173255
174,161,Costa Rica,5,Midfielder,Borges Celso,Celso,BORGES MORA,C. BORGES,5/27/1988 0:00,LD Alajuelense (CRC),182,"San José, Costa Rica",9.9280694,-84.0907246,56,56,Costa Rica,CR,Costa Rica,CR,14.7173255
175,164,Costa Rica,8,Defender,Oviedo Bryan,Bryan Josué,OVIEDO JIMÉNEZ,B. OVIEDO,2/18/1990 0:00,Real Salt Lake (USA),172,"San José, Costa Rica",9.9280694,-84.0907246,56,56,Costa Rica,CR,Costa Rica,CR,14.7173255
176,166,Costa Rica,10,Midfielder,Ruiz Bryan,Bryan Jafet,RUIZ GONZÁLEZ,BRYAN,8/18/1985 0:00,LD Alajuelense (CRC),187,"San José, Costa Rica",9.9280694,-84.0907246,56,56,Costa Rica,CR,Costa Rica,CR,14.7173255
177,168,Costa Rica,12,Forward,Campbell Joel,Joel Nathaniel,CAMPBELL SAMUELS,J. CAMPBELL,6/26/1992 0:00,Club León (MEX),178,"San José, Costa Rica",9.9280694,-84.0907246,56,56,Costa Rica,CR,Costa Rica,CR,14.7173255
178,171,Costa Rica,15,Defender,Calvo Francisco,Francisco Javier,CALVO QUESADA,F. CALVO,7/8/1992 0:00,Konyaspor (TUR),180,"San José, Costa Rica",9.9280694,-84.0907246,56,56,Costa Rica,CR,Costa Rica,CR,14.7173255
179,175,Costa Rica,19,Defender,Waston Kendall,Kendall Jamaal,WASTON MANLEY,K. WASTON,1/1/1988 0:00,Deportivo Saprissa (CRC),196,"San José, Costa Rica",9.9280694,-84.0907246,56,56,Costa Rica,CR,Costa Rica,CR,14.7173255
180,182,Costa Rica,26,Midfielder,Zamora Alvaro,Alvaro José,ZAMORA MATA,A. ZAMORA,3/9/2002 0:00,Deportivo Saprissa (CRC),180,"San José, Costa Rica",9.9280694,-84.0907246,56,56,Costa Rica,CR,Costa Rica,CR,14.7173255
181,172,Costa Rica,16,Defender,Martinez Carlos,Carlos Manuel,MARTÍNEZ CASTRO,C. MARTINEZ,3/30/1999 0:00,AD San Carlos (CRC),176,"Santa Ana, Costa Rica",9.9312697,-84.1820735,56,56,Costa Rica,CR,Costa Rica,CR,14.7173255
182,163,Costa Rica,7,Forward,Contreras Anthony,Anthony Daniel,CONTRERAS ENRÍQUEZ,A. CONTRERAS,1/29/2000 0:00,CS Herediano (CRC),180,"Lomas de Pavas, San José,Costa Rica",9.959153,-84.1636773,56,56,Costa Rica,CR,Costa Rica,CR,14.7173255
183,181,Costa Rica,25,Midfielder,Hernandez Anthony,Anthony William,HERNÁNDEZ GONZÁLEZ,A. HERNANDEZ,10/11/2001 0:00,Puntarenas FC (CRC),179,"Puntarenas, Costa Rica",9.9778439,-84.8294211,56,56,Costa Rica,CR,Costa Rica,CR,14.7173255
184,165,Costa Rica,9,Midfielder,Bennette Jewison,Jewison Francisco,BENNETTE VILLEGAS,J. BENNETTE,6/15/2004 0:00,Sunderland AFC (ENG),173,"Heredia, Costa Rica",9.9981413,-84.1197643,56,56,Costa Rica,CR,Costa Rica,CR,14.7173255
185,169,Costa Rica,13,Midfielder,Torres Gerson,Gerson,TORRES BARRANTES,G. TORRES,8/28/1997 0:00,CS Herediano (CRC),176,"Heredia, Costa Rica",9.9981413,-84.1197643,56,56,Costa Rica,CR,Costa Rica,CR,14.7173255
186,160,Costa Rica,4,Defender,Fuller Keysher,Keysher,FULLER SPENCE,K. FULLER,7/12/1994 0:00,CS Herediano (CRC),183,"Limón, Costa Rica",9.9913106,-83.0415078,56,56,Costa Rica,CR,Costa Rica,CR,14.7173255
187,167,Costa Rica,11,Forward,Venegas Johan,Johan Alberto,VENEGAS ULLOA,JOHAN,11/27/1988 0:00,LD Alajuelense (CRC),183,"Limón, Costa Rica",9.9913106,-83.0415078,56,56,Costa Rica,CR,Costa Rica,CR,14.7173255
188,173,Costa Rica,17,Midfielder,Tejeda Yeltsin,Yeltsin Ignacio,TEJEDA VALVERDE,Y. TEJEDA,3/17/1992 0:00,CS Herediano (CRC),179,"Limón, Costa Rica",9.9913106,-83.0415078,56,56,Costa Rica,CR,Costa Rica,CR,14.7173255
189,179,Costa Rica,23,Goalkeeper,Sequeira Patrick,Patrick Gilmar,SEQUEIRA MEJIAS,P. SEQUEIRA,3/1/1999 0:00,CD Lugo (ESP),190,"Limón, Costa Rica",9.9913106,-83.0415078,56,56,Costa Rica,CR,Costa Rica,CR,14.7173255
190,180,Costa Rica,24,Midfielder,Wilson Roan,Roan Roberto,WILSON GORDON,R. WILSON,5/1/2002 0:00,AD Municipal Grecia (CRC),184,"Limón, Costa Rica",9.9913106,-83.0415078,56,56,Costa Rica,CR,Costa Rica,CR,14.7173255
191,177,Costa Rica,21,Midfielder,Lopez Douglas,Douglas Andrey,LÓPEZ ARAYA,D. LÓPEZ,9/21/1998 0:00,CS Herediano (CRC),180,"Alajuela, Costa Rica",10.0159394,-84.2141701,56,56,Costa Rica,CR,Costa Rica,CR,14.7173255
192,178,Costa Rica,22,Defender,Matarrita Ronald,Ronald Alberto,MATARRITA ULATE,R. MATARRITA,7/9/1994 0:00,FC Cincinnatti (USA),175,"Alajuela, Costa Rica",10.0159394,-84.2141701,56,56,Costa Rica,CR,Costa Rica,CR,14.7173255
193,159,Costa Rica,3,Defender,Vargas Juan Pablo,Juan Pablo,VARGAS CAMPOS,J. VARGAS,6/6/1995 0:00,Millonarios FC (COL),192,"Sarchí, Costa Rica",10.0898383,-84.3476321,56,56,Costa Rica,CR,Costa Rica,CR,14.7173255
194,176,Costa Rica,20,Midfielder,Aguilera Brandon,Brandon,AGUILERA ZAMORA,B. AGUILERA,6/28/2003 0:00,AD Guanacasteca (CRC),179,"Naranjo, Costa Rica",10.0974116,-84.3831166,56,56,Costa Rica,CR,Costa Rica,CR,14.7173255
195,174,Costa Rica,18,Goalkeeper,Alvarado Esteban,Esteban,ALVARADO BROWN,E. ALVARADO,4/28/1989 0:00,CS Herediano (CRC),193,"Siquirres, Costa Rica",10.0981388,-83.5096859,56,56,Costa Rica,CR,Costa Rica,CR,14.7173255
196,170,Costa Rica,14,Midfielder,Salas Youstin,Youstin Deln,SALAS GOMEZ,Y. SALAS,6/17/1996 0:00,Deportivo Saprissa (CRC),173,"Cariari, Costa Rica",10.488088,-83.6135572,56,56,Costa Rica,CR,Costa Rica,CR,14.7173255
481,186,Croatia,4,Forward,Perisic Ivan,Ivan,PERIŠIĆ,PERIŠIĆ,2/2/1989 0:00,Tottenham Hotspur FC (ENG),187,"Split, SR Croatia, SFR Yugoslavia",43.5147118,16.4435148,58,58,Croatia,HR,Croatia,HR,37.58922917
482,194,Croatia,12,Goalkeeper,Grbic Ivo,Ivo,GRBIĆ,GRBIĆ,1/18/1996 0:00,CA Atlético Madrid (ESP),195,"Split, Croatia",43.5147118,16.4435148,58,58,Croatia,HR,Croatia,HR,37.58922917
483,195,Croatia,13,Midfielder,Vlasic Nikola,Nikola,VLAŠIĆ,VLAŠIĆ,10/4/1997 0:00,Torino FC (ITA),178,"Split, Croatia",43.5147118,16.4435148,58,58,Croatia,HR,Croatia,HR,37.58922917
484,196,Croatia,14,Forward,Livaja Marko,Marko,LIVAJA,LIVAJA,8/26/1993 0:00,HNK Hajduk Split (CRO),182,"Split, Croatia",43.5147118,16.4435148,58,58,Croatia,HR,Croatia,HR,37.58922917
485,208,Croatia,26,Midfielder,Jakic Kristijan,Kristijan,JAKIĆ,JAKIĆ,5/14/1997 0:00,Eintracht Frankfurt (GER),181,"Split, Croatia",43.5147118,16.4435148,58,58,Croatia,HR,Croatia,HR,37.58922917
510,28,Australia,2,Defender,Degenek Milos,Milos,DEGENEK,DEGENEK,4/28/1994 0:00,Columbus Crew SC (USA),187,"Knin, Croatia",44.0407757,16.1964988,58,58,Croatia,HR,Croatia,HR,37.58922917
511,148,Canada,18,Goalkeeper,Borjan Milan,Milan,BORJAN,BORJAN,10/23/1987 0:00,FK Crvena Zvezda (SRB),195,"Knin, SR Croatia, Yugoslavia",44.0407757,16.1964988,58,58,Croatia,HR,Croatia,HR,37.58922917
512,183,Croatia,1,Goalkeeper,Livakovic Dominik,Dominik,LIVAKOVIĆ,LIVAKOVIĆ,1/9/1995 0:00,GNK Dinamo Zagreb (CRO),188,"Zadar, Croatia",44.119371,15.2313648,58,58,Croatia,HR,Croatia,HR,37.58922917
513,187,Croatia,5,Defender,Erlic Martin,Martin,ERLIĆ,ERLIĆ,1/24/1998 0:00,US Sassuolo (ITA),192,"Zadar, Croatia",44.119371,15.2313648,58,58,Croatia,HR,Croatia,HR,37.58922917
514,192,Croatia,10,Midfielder,Modric Luka,Luka,MODRIĆ,MODRIĆ,9/9/1985 0:00,Real Madrid CF (ESP),172,"Zadar, SR Croatia, SFR Yugoslavia",44.119371,15.2313648,58,58,Croatia,HR,Croatia,HR,37.58922917
533,205,Croatia,23,Goalkeeper,Ivusic Ivica,Ivica,IVUŠIĆ,IVUŠIĆ,2/1/1995 0:00,NK Osijek (CRO),195,"Rijeka, Croatia",45.3270631,14.442176,58,58,Croatia,HR,Croatia,HR,37.58922917
535,203,Croatia,21,Defender,Vida Domagoj,Domagoj,VIDA,VIDA,4/29/1989 0:00,AEK Athens (GRE),184,"Našice, SR Croatia, SFR Yugoslavia",45.4946861,18.0951118,58,58,Croatia,HR,Croatia,HR,37.58922917
537,185,Croatia,3,Defender,Barisic Borna,Borna,BARIŠIĆ,BARIŠIĆ,11/10/1992 0:00,Rangers FC (SCO),186,"Osijek, Croatia",45.5549624,18.6955144,58,58,Croatia,HR,Croatia,HR,37.58922917
542,31,Australia,5,Defender,Karacic Fran,Fran,KARACIC,KARACIC,5/12/1996 0:00,Brescia Calcio (ITA),181,"Zagreb, Croatia",45.8150108,15.981919,58,58,Croatia,HR,Croatia,HR,37.58922917
543,189,Croatia,7,Midfielder,Majer Lovro,Lovro,MAJER,MAJER,1/17/1998 0:00,Stade Rennais FC (FRA),178,"Zagreb, Croatia",45.8150108,15.981919,58,58,Croatia,HR,Croatia,HR,37.58922917
544,191,Croatia,9,Forward,Kramaric Andrej,Andrej,KRAMARIĆ,KRAMARIĆ,6/19/1991 0:00,TSG 1899 Hoffenheim (GER),177,"Zagreb, SR Croatia, Yugoslavia",45.8150108,15.981919,58,58,Croatia,HR,Croatia,HR,37.58922917
545,193,Croatia,11,Midfielder,Brozovic Marcelo,Marcelo,BROZOVIĆ,BROZOVIĆ,11/16/1992 0:00,FC Internazionale (ITA),181,"Zagreb, Croatia",45.8150108,15.981919,58,58,Croatia,HR,Croatia,HR,37.58922917
546,200,Croatia,18,Forward,Orsic Mislav,Mislav,ORŠIĆ,ORŠIĆ,12/29/1992 0:00,GNK Dinamo Zagreb (CRO),179,"Zagreb, Croatia",45.8150108,15.981919,58,58,Croatia,HR,Croatia,HR,37.58922917
547,201,Croatia,19,Defender,Sosa Borna,Borna,SOSA,SOSA,1/21/1998 0:00,VfB Stuttgart (GER),187,"Zagreb, Croatia",45.8150108,15.981919,58,58,Croatia,HR,Croatia,HR,37.58922917
548,202,Croatia,20,Defender,Gvardiol Josko,Joško,GVARDIOL,GVARDIOL,1/23/2002 0:00,RB Leipzig (GER),185,"Zagreb, Croatia",45.8150108,15.981919,58,58,Croatia,HR,Croatia,HR,37.58922917
549,204,Croatia,22,Defender,Juranovic Josip,Josip,JURANOVIĆ,JURANOVIĆ,8/16/1995 0:00,Celtic FC (SCO),173,"Zagreb, Croatia",45.8150108,15.981919,58,58,Croatia,HR,Croatia,HR,37.58922917
799,225,Denmark,17,Defender,Stryger Larsen Jens,Jens Stryger,LARSEN,STRYGER,2/21/1991 0:00,Trabzonspor (TUR),182,"Sakskøbing, Denmark",54.798236,11.631226,63,63,Denmark,DK,Denmark,DK,45.38183934
803,234,Denmark,26,Defender,Bah Alexander,Alexander Hartmann,BAH,BAH,12/9/1997 0:00,SL Benfica (POR),183,"Årslev, Denmark",55.3065946,10.4789498,63,63,Denmark,DK,Denmark,DK,45.38183934
804,224,Denmark,16,Goalkeeper,Christensen Oliver,Oliver,CHRISTENSEN,O. CHRISTENSEN,3/22/1999 0:00,Hertha BSC (GER),190,"Kerteminde, Denmark",55.455882,10.654979,63,63,Denmark,DK,Denmark,DK,45.38183934
805,217,Denmark,9,Forward,Braithwaite Martin,Martin Christensen,BRAITHWAITE,BRAITHWAITE,6/5/1991 0:00,RCD Espanyol (ESP),180,"Esbjerg, Denmark",55.476466,8.459405,63,63,Denmark,DK,Denmark,DK,45.38183934
806,218,Denmark,10,Midfielder,Eriksen Christian,Christian Dannemann,ERIKSEN,ERIKSEN,2/14/1992 0:00,Manchester United FC (ENG),181,"Middelfart, Denmark",55.497204,9.747172,63,63,Denmark,DK,Denmark,DK,45.38183934
807,210,Denmark,2,Defender,Andersen Joachim,Joachim Christian,ANDERSEN,ANDERSEN,5/31/1996 0:00,Crystal Palace FC (ENG),192,"Solrød Strand, Denmark",55.5347191,12.1929891,63,63,Denmark,DK,Denmark,DK,45.38183934
809,215,Denmark,7,Midfielder,Jensen Mathias,Mathias,JENSEN,JENSEN,1/1/1996 0:00,Brentford FC (ENG),180,"Jerslev, Zealand, Denmark",55.612252,11.229265,63,63,Denmark,DK,Denmark,DK,45.38183934
810,227,Denmark,19,Forward,Wind Jonas,Jonas Older,WIND,WIND,2/7/1999 0:00,VfL Wolfsburg (GER),190,"Hvidovre, Denmark",55.642522,12.475386,63,63,Denmark,DK,Denmark,DK,45.38183934
811,233,Denmark,25,Midfielder,Lindstrom Jesper,Jesper Grænge,LINDSTRØM,LINDSTRØM,2/29/2000 0:00,Eintracht Frankfurt (GER),182,"Taastrup, Denmark",55.6460162,12.2979366,63,63,Denmark,DK,Denmark,DK,45.38183934
812,209,Denmark,1,Goalkeeper,Schmeichel Kasper,Kasper Peter,SCHMEICHEL,SCHMEICHEL,11/5/1986 0:00,OGC Nice (FRA),190,"Copenhagen, Denmark",55.6760968,12.5683371,63,63,Denmark,DK,Denmark,DK,45.38183934
813,223,Denmark,15,Midfielder,Norgaard Christian,Christian Thers,NØRGAARD,NØRGAARD,3/10/1994 0:00,Brentford FC (ENG),186,"Copenhagen, Denmark",55.6760968,12.5683371,63,63,Denmark,DK,Denmark,DK,45.38183934
814,228,Denmark,20,Forward,Yurary Poulsen Yussuf,Yussuf Yurary,POULSEN,YURARY,6/15/1994 0:00,RB Leipzig (GER),193,"Copenhagen, Denmark",55.6760968,12.5683371,63,63,Denmark,DK,Denmark,DK,45.38183934
815,229,Denmark,21,Forward,Cornelius Andreas,Andreas Evald,CORNELIUS,CORNELIUS,3/16/1993 0:00,FC København (DEN),195,"Copenhagen, Denmark",55.6760968,12.5683371,63,63,Denmark,DK,Denmark,DK,45.38183934
816,231,Denmark,23,Midfielder,Hojbjerg Pierre-emile,Pierre-Emile Kordt,HØJBJERG,HØJBJERG,8/5/1995 0:00,Tottenham Hotspur FC (ENG),187,"Copenhagen, Denmark",55.6760968,12.5683371,63,63,Denmark,DK,Denmark,DK,45.38183934
817,752,Tunisia,25,Forward,Ben Slimane Anis,Anis,BEN SLIMANE,BEN SLIMANE,3/16/2001 0:00,Brøndby IF (DEN),188,"Copenhagen, Denmark",55.6760968,12.5683371,63,63,Denmark,DK,Denmark,DK,45.38183934
818,216,Denmark,8,Midfielder,Delaney Thomas,Thomas Joseph,DELANEY,DELANEY,9/3/1991 0:00,Sevilla FC (ESP),180,"Frederiksberg, Denmark",55.677069,12.513321,63,63,Denmark,DK,Denmark,DK,45.38183934
819,226,Denmark,18,Defender,Wass Daniel,Daniel,WASS,WASS,5/31/1989 0:00,Brøndby IF (DEN),181,"Gladsaxe, Denmark",55.733461,12.488686,63,63,Denmark,DK,Denmark,DK,45.38183934
820,222,Denmark,14,Midfielder,Damsgaard Mikkel,Mikkel Krogh,DAMSGAARD,DAMSGAARD,7/3/2000 0:00,Brentford FC (ENG),180,"Jyllinge, Denmark",55.748496,12.110293,63,63,Denmark,DK,Denmark,DK,45.38183934
821,212,Denmark,4,Defender,Kjaer Simon,Simon Thorup,KJÆR,KJÆR,3/26/1989 0:00,AC Milan (ITA),191,"Horsens, Denmark",55.8581302,9.8475881,63,63,Denmark,DK,Denmark,DK,45.38183934
822,230,Denmark,22,Goalkeeper,Ronnow Frederik,Frederik Riis,RØNNOW,RØNNOW,8/4/1992 0:00,1. FC Union Berlin (GER),190,"Horsens, Denmark",55.8581302,9.8475881,63,63,Denmark,DK,Denmark,DK,45.38183934
823,214,Denmark,6,Defender,Christensen Andreas,Andreas Bødtker,CHRISTENSEN,A. CHRISTENSEN,4/10/1996 0:00,FC Barcelona (ESP),192,"Lillerød, Denmark",55.8684723,12.3429773,63,63,Denmark,DK,Denmark,DK,45.38183934
824,219,Denmark,11,Midfielder,Skov Olsen Andreas,Andreas Skov,OLSEN,SKOV OLSEN,12/29/1999 0:00,Club Brugge (BEL),187,"Hillerød, Denmark",55.927909,12.300806,63,63,Denmark,DK,Denmark,DK,45.38183934
825,221,Denmark,13,Defender,Kristensen Rasmus,Rasmus Nissen,KRISTENSEN,KRISTENSEN,7/11/1997 0:00,Leeds United FC (ENG),187,"Brande, Denmark",55.9426864,9.1287953,63,63,Denmark,DK,Denmark,DK,45.38183934
827,211,Denmark,3,Defender,Nelsson Victor,Victor Enok,NELSSON,NELSSON,10/14/1998 0:00,Galatasaray SK (TUR),185,"Hornbæk, Denmark",56.084962,12.458537,63,63,Denmark,DK,Denmark,DK,45.38183934
828,220,Denmark,12,Forward,Dolberg Kasper,Kasper Dolberg,RASMUSSEN,DOLBERG,10/6/1997 0:00,Sevilla FC (ESP),187,"Silkeborg, Denmark",56.176362,9.5549216,63,63,Denmark,DK,Denmark,DK,45.38183934
832,213,Denmark,5,Defender,Maehle Joakim,Joakim Mæhle,PEDERSEN,MÆHLE,5/20/1997 0:00,Atalanta Bergamo (ITA),185,"Østervrå, Denmark",57.3411787,10.2382091,63,63,Denmark,DK,Denmark,DK,45.38183934
105,245,Ecuador,11,Forward,Estrada Michael,Michael Steveen,ESTRADA MARTÍNEZ,ESTRADA,4/7/1996 0:00,Cruz Azul (MEX),187,"Guayaquil, Ecuador",-2.1894128,-79.8890662,67,67,Ecuador,EC,Ecuador,EC,35.22053673
106,246,Ecuador,12,Goalkeeper,Ramirez Moises,Wellington Moises,RAMÍREZ PRECIADO,RAMIREZ,9/9/2000 0:00,Independiente Del Valle (ECU),185,"Guayaquil, Ecuador",-2.1894128,-79.8890662,67,67,Ecuador,EC,Ecuador,EC,35.22053673
107,248,Ecuador,14,Defender,Arreaga Xavier,Xavier Ricardo,ARREAGA BERMELLO,ARREAGA,9/28/1994 0:00,Seattle Sounders FC (USA),184,"Guayaquil, Ecuador",-2.1894128,-79.8890662,67,67,Ecuador,EC,Ecuador,EC,35.22053673
108,249,Ecuador,15,Midfielder,Mena Angel,Angel Israel,MENA DELGADO,MENA,1/21/1988 0:00,Club León (MEX),168,"Guayaquil, Ecuador",-2.1894128,-79.8890662,67,67,Ecuador,EC,Ecuador,EC,35.22053673
109,252,Ecuador,18,Defender,Palacios Diego,Diego Jose,PALACIOS ESPINOZA,PALACIOS,7/12/1999 0:00,Los Angeles FC (USA),169,"Guayaquil, Ecuador",-2.1894128,-79.8890662,67,67,Ecuador,EC,Ecuador,EC,35.22053673
110,253,Ecuador,19,Midfielder,Plata Gonzalo,Gonzalo Jordy,PLATA JIMENEZ,PLATA,11/1/2000 0:00,Real Valladolid CF (ESP),178,"Guayaquil, Ecuador",-2.1894128,-79.8890662,67,67,Ecuador,EC,Ecuador,EC,35.22053673
111,255,Ecuador,21,Midfielder,Franco Alan,Alan Steven,FRANCO PALMA,FRANCO,8/21/1998 0:00,CA Talleres (ARG),175,"Jujan, Ecuador",-1.8907804,-79.5550787,67,67,Ecuador,EC,Ecuador,EC,35.22053673
113,242,Ecuador,8,Midfielder,Gruezo Carlos,Carlos Armando,GRUEZO ARVOLEDA,GRUEZO,4/19/1995 0:00,FC Augsburg (GER),172,"Santo Domingo, Ecuador",-0.2538414,-79.1763307,67,67,Ecuador,EC,Ecuador,EC,35.22053673
114,257,Ecuador,23,Midfielder,Caicedo Moises,Moises Isaac,CAICEDO COROZO,CAICEDO,11/2/2001 0:00,Brighton & Hove Albion FC (ENG),178,"Santo Domingo, Ecuador",-0.2538414,-79.1763307,67,67,Ecuador,EC,Ecuador,EC,35.22053673
115,251,Ecuador,17,Defender,Preciado Angelo,Angelo Smit,PRECIADO QUIÑONEZ,ANGELO,2/18/1998 0:00,KRC Genk (BEL),174,"Shushufindi, Ecuador",-0.1882903,-76.6421554,67,67,Ecuador,EC,Ecuador,EC,35.22053673
116,258,Ecuador,24,Forward,Reasco Djorkaeff,Djorkaeff Neicer,REASCO GONZALEZ,REASCO,1/18/1999 0:00,CA Newells Old Boys (ARG),172,"Quito, Ecuador",-0.1806532,-78.4678382,67,67,Ecuador,EC,Ecuador,EC,35.22053673
117,240,Ecuador,6,Defender,Pacho William,William Joel,PACHO TENORIO,PACHO,10/16/2001 0:00,Royal Antwerp FC (BEL),188,"Quinindé, Ecuador",0.3268809,-79.4647633,67,67,Ecuador,EC,Ecuador,EC,35.22053673
118,244,Ecuador,10,Midfielder,Ibarra Romario,Romario Andres,IBARRA MINA,IBARRA,9/24/1994 0:00,CF Pachuca (MEX),175,"Atuntaqui, Ecuador",0.3323852,-78.2162833,67,67,Ecuador,EC,Ecuador,EC,35.22053673
119,260,Ecuador,26,Forward,Rodriguez Kevin,Kevin Jose,RODRIGUEZ CORTEZ,K. RODRIGUEZ,3/4/2000 0:00,Imbabura SC (ECU),190,"Ibarra, Ecuador",0.3471469,-78.1323648,67,67,Ecuador,EC,Ecuador,EC,35.22053673
120,254,Ecuador,20,Midfielder,Mendez Jhegson,Jhegson Sebastián,MÉNDEZ CARABALÍ,MENDEZ,4/26/1997 0:00,Los Angeles FC (USA),175,"Mira, Ecuador",0.5502202,-78.0409416,67,67,Ecuador,EC,Ecuador,EC,35.22053673
121,237,Ecuador,3,Defender,Hincapie Piero,Piero Martin,HINCAPIE REYNA,HINCAPIE,1/9/2002 0:00,Bayer 04 Leverkusen (GER),183,"Esmeraldas, Ecuador",0.9681789,-79.6517202,67,67,Ecuador,EC,Ecuador,EC,35.22053673
122,238,Ecuador,4,Defender,Arboleda Robert,Robert Abel,ARBOLEDA ESCOBAR,ARBOLEDA,10/22/1991 0:00,Sao Paulo FC (BRA),189,"Esmeraldas, Ecuador",0.9681789,-79.6517202,67,67,Ecuador,EC,Ecuador,EC,35.22053673
123,239,Ecuador,5,Midfielder,Cifuentes Jose,Jose Adoni,CIFUENTES CHARCOPA,CIFUENTES,3/12/1999 0:00,Los Angeles FC (USA),178,"Esmeraldas, Ecuador",0.9681789,-79.6517202,67,67,Ecuador,EC,Ecuador,EC,35.22053673
124,241,Ecuador,7,Defender,Estupinan Pervis,Pervis Josue,ESTUPIÑÁN TENORIO,ESTUPIÑAN,1/21/1998 0:00,Brighton & Hove Albion FC (ENG),175,"Esmeraldas, Ecuador",0.9681789,-79.6517202,67,67,Ecuador,EC,Ecuador,EC,35.22053673
125,243,Ecuador,9,Midfielder,Preciado Ayrton,Eduar Ayrton,PRECIADO GARCIA,AYRTON P.,7/17/1994 0:00,Club Santos Laguna (MEX),181,"Esmeraldas, Ecuador",0.9681789,-79.6517202,67,67,Ecuador,EC,Ecuador,EC,35.22053673
126,247,Ecuador,13,Forward,Valencia Enner,Enner Remberto,VALENCIA LASTRA,VALENCIA,11/4/1989 0:00,Fenerbahce SK (TUR),177,"Esmeraldas, Ecuador",0.9681789,-79.6517202,67,67,Ecuador,EC,Ecuador,EC,35.22053673
127,256,Ecuador,22,Goalkeeper,Dominguez Alexander,Alexander,DOMINGUEZ CARABALI,DOMINGUEZ,6/5/1987 0:00,LDU Quito (ECU),195,"Esmeraldas, Ecuador",0.9681789,-79.6517202,67,67,Ecuador,EC,Ecuador,EC,35.22053673
128,236,Ecuador,2,Defender,Torres Felix,Felix Eduardo,TORRES CAICEDO,TORRES,1/11/1997 0:00,Club Santos Laguna (MEX),187,"San Lorenzo, Ecuador",1.2694769,-78.8439268,67,67,Ecuador,EC,Ecuador,EC,35.22053673
129,259,Ecuador,25,Defender,Porozo Jackson,Jackson Gabriel,POROZO VERNAZA,POROZO,8/4/2000 0:00,ES Troyes (FRA),191,"San Lorenzo, Ecuador",1.2694769,-78.8439268,67,67,Ecuador,EC,Ecuador,EC,35.22053673
284,47,Australia,21,Forward,Kuol Garang,Garang,MAWIEN KUOL,KUOL,9/15/2004 0:00,Central Coast Mariners FC (AUS),175,Egypt,26.820553,30.802498,68,68,Egypt,EG,Egypt,EG,53.23047693
292,578,Qatar,7,Forward,Ahmed Alaaeldin,Ahmed Alaaeldin B M,ABDELMOTAAL,ALAADIN,1/31/1993 0:00,Al Gharafa SC (QAT),176,"Ismailia, Egypt",30.5964923,32.2714587,68,68,Egypt,EG,Egypt,EG,53.23047693
655,818,Wales,13,Forward,Moore Kieffer,Kieffer Roberto Francisco,MOORE,MOORE,8/8/1992 0:00,Bournemouth AFC (ENG),196,"Torquay, England",50.4619209,-3.525315,252,251,England,,United Kingdom,,
665,281,England,21,Defender,White Ben,Benjamin William,WHITE,WHITE,10/8/1997 0:00,Arsenal FC (ENG),186,"Poole, England",50.71505,-1.987248,252,251,England,,United Kingdom,,
666,820,Wales,15,Defender,Ampadu Ethan,Ethan Kwame Colm Raymond,AMPADU,AMPADU,9/14/2000 0:00,Spezia Calcio (ITA),183,"Exeter, England",50.7260367,-3.5274889,252,251,England,,United Kingdom,,
671,279,England,19,Midfielder,Mount Mason,Mason Tony,MOUNT,MOUNT,1/10/1999 0:00,Chelsea FC (ENG),180,"Portsmouth, England",50.8197675,-1.0879769,252,251,England,,United Kingdom,,
686,823,Wales,18,Midfielder,Williams Jonny,Jonathan Peter,WILLIAMS,J WILLIAMS,10/9/1993 0:00,Swindon Town FC (ENG),168,"Pembury, Kent, England",51.1474345,0.3288283,252,251,England,,United Kingdom,,
696,286,England,26,Midfielder,Gallagher Conor,Conor John,GALLAGHER,GALLAGHER,2/6/2000 0:00,Chelsea FC (ENG),183,"Epsom, England",51.3351004,-0.2637125,252,251,England,,United Kingdom,,
698,263,England,3,Defender,Shaw Luke,Luke Paul,SHAW,SHAW,7/12/1995 0:00,Manchester United FC (ENG),185,"Kingston upon Thames, England",51.41233,-0.300689,252,251,England,,United Kingdom,,
699,264,England,4,Midfielder,Rice Declan,Declan,RICE,RICE,1/14/1999 0:00,West Ham United FC (ENG),185,"Kingston upon Thames, England",51.41233,-0.300689,252,251,England,,United Kingdom,,
702,142,Canada,12,Forward,Ugbo Ike,Ike Dominique,UGBO,UGBO,9/21/1998 0:00,ES Troyes (FRA),185,"Lewisham, England",51.4611509,-0.0073177,252,251,England,,United Kingdom,,
707,363,Ghana,25,Forward,Semenyo Antoine,Antoine Serlom,SEMENYO,SEMENYO,1/7/2000 0:00,Bristol City FC (ENG),172,"Chelsea, England",51.4869429,-0.170037,252,251,England,,United Kingdom,,
708,133,Canada,3,Defender,Adekugbe Sam,Samuel Ayomide,ADEKUGBE,ADEKUGBE,1/16/1995 0:00,Hatayspor (TUR),175,"London, England",51.5072178,-0.1275862,252,251,England,,United Kingdom,,
709,521,Poland,2,Defender,Cash Matty,Matthew Stuart,CASH,CASH,8/7/1997 0:00,Aston Villa FC (ENG),185,"Slough, England",51.5105384,-0.5950406,252,251,England,,United Kingdom,,
710,277,England,17,Forward,Saka Bukayo,Bukayo Ayoyinka,SAKA,SAKA,9/5/2001 0:00,Arsenal FC (ENG),178,"Ealing, England",51.5132537,-0.3043136,252,251,England,,United Kingdom,,
712,827,Wales,22,Midfielder,Thomas Sorba,Benjamin Sorba William,THOMAS,THOMAS,1/25/1999 0:00,Hudderseld Town FC (ENG),185,"Newham, England",51.5255162,0.0352163,252,251,England,,United Kingdom,,
713,799,USA,20,Defender,Carter-vickers Cameron,Cameron Robert,CARTER-VICKERS,CARTER-VICKERS,12/31/1997 0:00,Celtic FC (SCO),185,"Southend-on-Sea, England",51.5459269,0.7077123,252,251,England,,United Kingdom,,
714,340,Ghana,2,Defender,Lamptey Tariq,Tariq Kwame Nii-Lante,LAMPTEY,TARIQ,9/30/2000 0:00,Brighton & Hove Albion FC (ENG),170,"Hillingdon, England",51.5351832,-0.4481378,252,251,England,,United Kingdom,,
719,810,Wales,5,Defender,Mepham Chris,Christopher James,MEPHAM,MEPHAM,11/5/1997 0:00,Bournemouth AFC (ENG),190,"Harrow, England",51.580559,-0.341995,252,251,England,,United Kingdom,,
721,269,England,9,Forward,Kane Harry,Harry Edward,KANE,KANE,7/28/1993 0:00,Tottenham Hotspur FC (ENG),188,"Walthamstow, England",51.5901769,-0.0173437,252,251,England,,United Kingdom,,
732,275,England,15,Defender,Dier Eric,Eric Jeremy Edgar,DIER,DIER,1/15/1994 0:00,Tottenham Hotspur FC (ENG),188,"Cheltenham, England",51.8993855,-2.0782533,252,251,England,,United Kingdom,,
741,784,USA,5,Defender,Robinson Antonee,Antonee,ROBINSON,ROBINSON,8/8/1997 0:00,Fulham FC (ENG),182,"Milton Keynes, England",52.0406224,-0.7594171,252,251,England,,United Kingdom,,
742,821,Wales,16,Midfielder,Morrell Joe,Joseff John,MORRELL,MORRELL,1/3/1997 0:00,Portsmouth FC (ENG),185,"Ipswich, England",52.056736,1.14822,252,251,England,,United Kingdom,,
757,831,Wales,26,Midfielder,Smith Matt,Matthew Robert,SMITH,SMITH,11/22/1999 0:00,MK Dons FC (ENG),175,"Redditch, England",52.30897,-1.940936,252,251,England,,United Kingdom,,
759,273,England,13,Goalkeeper,Pope Nick,Nicholas David,POPE,POPE,4/19/1992 0:00,Newcastle United FC (ENG),191,"Soham, England",52.335212,0.3375079,252,251,England,,United Kingdom,,
768,284,England,24,Forward,Wilson Callum,Callum Eddie Graham,WILSON,WILSON,2/27/1992 0:00,Newcastle United FC (ENG),180,"Coventry, England",52.4128163,-1.5089521,252,251,England,,United Kingdom,,
769,285,England,25,Midfielder,Maddison James,James,MADDISON,MADDISON,11/23/1996 0:00,Leicester City FC (ENG),175,"Coventry, England",52.4128163,-1.5089521,252,251,England,,United Kingdom,,
770,282,England,22,Midfielder,Bellingham Jude,Jude Victor William,BELLINGHAM,BELLINGHAM,6/29/2003 0:00,Borussia Dortmund (GER),186,"Stourbridge, England",52.456891,-2.148731,252,251,England,,United Kingdom,,
771,267,England,7,Forward,Grealish Jack,Jack Peter,GREALISH,GREALISH,9/10/1995 0:00,Manchester City FC (ENG),175,"Birmingham, England",52.486243,-1.890401,252,251,England,,United Kingdom,,
776,814,Wales,9,Forward,Johnson Brennan,Brennan Price,JOHNSON,JOHNSON,5/23/2001 0:00,Nottingham Forest FC (ENG),179,"Nottingham, England",52.9540223,-1.1549892,252,251,England,,United Kingdom,,
778,283,England,23,Goalkeeper,Ramsdale Aaron,Aaron Christopher,RAMSDALE,RAMSDALE,5/14/1998 0:00,Arsenal FC (ENG),188,"Stoke-on-Trent, England",53.0033369,-2.1827408,252,251,England,,United Kingdom,,
785,262,England,2,Defender,Walker Kyle,Kyle Andrew,WALKER,WALKER,5/28/1990 0:00,Manchester City FC (ENG),178,"Sheffield, England",53.381129,-1.470085,252,251,England,,United Kingdom,,
786,266,England,6,Defender,Maguire Harry,Harry Jacob,MAGUIRE,MAGUIRE,3/5/1993 0:00,Manchester United FC (ENG),193,"Sheffield, England",53.381129,-1.470085,252,251,England,,United Kingdom,,
787,278,England,18,Defender,Alexander-arnold Trent,Trent John,ALEXANDER-ARNOLD,ALEXANDER-ARNOLD,10/7/1998 0:00,Liverpool FC (ENG),175,"Liverpool, England",53.4083714,-2.9915726,252,251,England,,United Kingdom,,
788,280,England,20,Midfielder,Foden Phil,Philip Walter,FODEN,FODEN,5/28/2000 0:00,Manchester City FC (ENG),180,"Stockport, England",53.4106316,-2.1575332,252,251,England,,United Kingdom,,
790,276,England,16,Defender,Coady Conor,Conor David,COADY,COADY,2/25/1993 0:00,Everton FC (ENG),184,"St Helens, England",53.456307,-2.737095,252,251,England,,United Kingdom,,
791,271,England,11,Forward,Rashford Marcus,Marcus,RASHFORD,RASHFORD,10/31/1997 0:00,Manchester United FC (ENG),180,"Manchester, England",53.4807593,-2.2426305,252,251,England,,United Kingdom,,
793,265,England,5,Defender,Stones John,John,STONES,STONES,5/28/1994 0:00,Manchester City FC (ENG),188,"Barnsley, England",53.55263,-1.479726,252,251,England,,United Kingdom,,
794,272,England,12,Defender,Trippier Kieran,Kieran John,TRIPPIER,TRIPPIER,9/19/1990 0:00,Newcastle United FC (ENG),178,"Bury, England",53.5933498,-2.2966054,252,251,England,,United Kingdom,,
795,825,Wales,20,Forward,James Daniel,Daniel Owen,JAMES,JAMES,11/10/1997 0:00,Fulham FC (ENG),171,"Kingston upon Hull, England",53.7676236,-0.3274198,252,251,England,,United Kingdom,,
796,274,England,14,Midfielder,Phillips Kalvin,Kalvin Mark,PHILLIPS,PHILLIPS,12/2/1995 0:00,Manchester City FC (ENG),178,"Leeds, England",53.8007554,-1.5490774,252,251,England,,United Kingdom,,
800,261,England,1,Goalkeeper,Pickford Jordan,Jordan Lee,PICKFORD,PICKFORD,3/7/1994 0:00,Everton FC (ENG),185,"Washington, England",54.897432,-1.517366,252,251,England,,United Kingdom,,
801,268,England,8,Midfielder,Henderson Jordan,Jordan Brian,HENDERSON,HENDERSON,6/17/1990 0:00,Liverpool FC (ENG),183,"Sunderland, England",54.906869,-1.383801,252,251,England,,United Kingdom,,
802,786,USA,7,Forward,Reyna Giovanni,Giovanni Alejandro,REYNA,REYNA,11/13/2002 0:00,Borussia Dortmund (GER),185,"Sunderland, England",54.906869,-1.383801,252,251,England,,United Kingdom,,
458,737,Tunisia,10,Forward,Khazri Wahbi,Wahbi,KHAZRI,KHAZRI,2/8/1991 0:00,Montpellier HSC (FRA),182,"Ajaccio, Corsica, France",41.919229,8.738635,79,79,France,FR,France,FR,65.84704267
468,629,Senegal,6,Midfielder,Mendy Nampalys,Nampalys,MENDY,NAMPALYS,6/23/1992 0:00,Leicester City FC (ENG),167,"La Seyne-sur-Mer, France",43.102976,5.878219,79,79,France,FR,France,FR,65.84704267
471,307,France,21,Defender,Hernandez Lucas,Lucas Francois Bernard,HERNANDEZ,L. HERNANDEZ,2/14/1996 0:00,FC Bayern München (GER),184,"Marseille, France",43.296482,5.36978,79,79,France,FR,France,FR,65.84704267
472,308,France,22,Defender,Hernandez Theo,Théo Bernard François,HERNANDEZ,T. HERNANDEZ,10/6/1997 0:00,AC Milan (ITA),184,"Marseille, France",43.296482,5.36978,79,79,France,FR,France,FR,65.84704267
473,347,Ghana,9,Forward,Ayew Jordan,Jordan Pierre,AYEW,J. AYEW,9/11/1991 0:00,Crystal Palace FC (ENG),182,"Marseille, France",43.296482,5.36978,79,79,France,FR,France,FR,65.84704267
474,750,Tunisia,23,Forward,Sliti Naim,Naim,SLITI,SLITI,7/27/1992 0:00,Al Ettifaq FC (KSA),173,"Marseille, France",43.296482,5.36978,79,79,France,FR,France,FR,65.84704267
479,753,Tunisia,26,Goalkeeper,Hassen Mouez,Mouez,HASSEN,HASSEN,3/5/1995 0:00,Club Africain (TUN),186,"Fréjus, France",43.433152,6.737034,79,79,France,FR,France,FR,65.84704267
486,733,Tunisia,6,Defender,Bronn Dylan,Dylan Daniel Mahmoud,BRONN,BRONN,6/19/1995 0:00,US Salernitana (ITA),186,"Cannes, France",43.552847,7.017369,79,79,France,FR,France,FR,65.84704267
487,361,Ghana,23,Defender,Djiku Alexander,Alexander Kwabena Baidooh,DJIKU,DJIKU,8/9/1994 0:00,RC Strasbourg (FRA),182,"Montpellier, France",43.610769,3.876716,79,79,France,FR,France,FR,65.84704267
495,744,Tunisia,17,Midfielder,Skhiri Ellyes,Ellyes Joris,SKHIRI,SKHIRI,5/10/1995 0:00,1. FC Köln (GER),185,"Lunel, France",43.67445,4.135366,79,79,France,FR,France,FR,65.84704267
496,287,France,1,Goalkeeper,Lloris Hugo,Hugo Hadrien Dominique,LLORIS,LLORIS,12/26/1986 0:00,Tottenham Hotspur FC (ENG),188,"Nice, France",43.7101728,7.2619532,79,79,France,FR,France,FR,65.84704267
497,748,Tunisia,21,Defender,Kechrida Wajdi,Wajdi,KECHRIDA,KECHRIDA,11/5/1995 0:00,Atromitos FC (GRE),177,"Nice, France",43.7101728,7.2619532,79,79,France,FR,France,FR,65.84704267
515,699,Spain,24,Defender,Laporte Aymeric,Aymeric,LAPORTE FEVRE,LAPORTE,5/27/1994 0:00,Manchester City FC (ENG),189,"Agen, France",44.203142,0.616363,79,79,France,FR,France,FR,65.84704267
532,473,Morocco,6,Defender,Saiss Romain,Romain Ghanem Paul,SAISS,SAISS,3/26/1990 0:00,Besiktas JK (TUR),190,"Bourg-de-Péage, France",45.040419,5.050948,79,79,France,FR,France,FR,65.84704267
538,295,France,9,Forward,Giroud Olivier,Olivier Jonathan,GIROUD,GIROUD,9/30/1986 0:00,AC Milan (ITA),193,"Chambéry, France",45.564601,5.917781,79,79,France,FR,France,FR,65.84704267
540,305,France,19,Forward,Benzema Karim,Karim Mostafa,BENZEMA,BENZEMA,12/19/1987 0:00,Real Madrid CF (ESP),187,"Lyon, France",45.764043,4.835659,79,79,France,FR,France,FR,65.84704267
553,644,Senegal,21,Forward,Dia Boulaye,Boulaye,DIA,DIA,11/16/1996 0:00,US Salernitana (ITA),180,"Oyonnax, France",46.257773,5.655335,79,79,France,FR,France,FR,65.84704267
554,293,France,7,Forward,Griezmann Antoine,Antoine,GRIEZMANN,GRIEZMANN,3/21/1991 0:00,CA Atlético Madrid (ESP),173,"Mâcon, France",46.3068839,4.828731,79,79,France,FR,France,FR,65.84704267
566,301,France,15,Midfielder,Veretout Jordan,Jordan Marcel Gilbert,VERETOUT,VERETOUT,3/1/1993 0:00,Olympique Marseille (FRA),177,"Ancenis, France",47.365464,-1.177491,79,79,France,FR,France,FR,65.84704267
575,627,Senegal,4,Defender,Diallo Abdou,Abdou Lakhad,DIALLO,DIALLO,5/4/1996 0:00,RB Leipzig (GER),187,"Tours, France",47.394144,0.68484,79,79,France,FR,France,FR,65.84704267
577,124,Cameroon,20,Forward,Mbeumo Bryan,Bryan Tetsadong Marceau,MBEUMO,MBEUMO,8/7/1999 0:00,Brentford FC (ENG),173,"Avallon, France",47.48822,3.907722,79,79,France,FR,France,FR,65.84704267
594,626,Senegal,3,Defender,Koulibaly Kalidou,Kalidou,KOULIBALY,KOULIBALY,6/20/1991 0:00,Chelsea FC (ENG),195,"Saint-Dié-des-Vosges, France",48.2874679,6.947767,79,79,France,FR,France,FR,65.84704267
598,126,Cameroon,22,Midfielder,Ntcham Olivier,Jules Olivier,NTCHAM,NTCHAM,2/9/1996 0:00,Swansea City AFC (WAL),180,"Longjumeau, France",48.6930642,2.2947615,79,79,France,FR,France,FR,65.84704267
601,125,Cameroon,21,Defender,Castelletto Jean-charles,Jean-Charles Victor,CASTELLETTO,CASTELLETTO,1/26/1995 0:00,FC Nantes (FRA),186,"Clamart, France",48.799815,2.257289,79,79,France,FR,France,FR,65.84704267
602,111,Cameroon,7,Midfielder,Nkoudou Georges-kevin,Georges Kevin,NKOUDOU MBIDA,NKOUDOU,2/13/1995 0:00,Besiktas JK (TUR),172,"Versailles, France",48.801408,2.130122,79,79,France,FR,France,FR,65.84704267
603,735,Tunisia,8,Midfielder,Mejbri Hannibal,Hannibal,MEJBRI,HANNIBAL,1/21/2003 0:00,Birmingham City FC (ENG),177,"Ivry-sur-Seine, France",48.813055,2.38822,79,79,France,FR,France,FR,65.84704267
604,300,France,14,Midfielder,Rabiot Adrien,Adrien Thibault Marie,RABIOT,RABIOT,4/3/1995 0:00,Juventus FC (ITA),191,"Saint-Maurice, France",48.8205669,2.423655,79,79,France,FR,France,FR,65.84704267
605,630,Senegal,7,Defender,Sabaly Youssouf,Youssouf,SABALY,SABALY,3/5/1993 0:00,Real Betis (ESP),174,"Le Chesnay, France",48.8262851,2.128365,79,79,France,FR,France,FR,65.84704267
607,116,Cameroon,12,Forward,Toko Ekambi Karl,Karl Louis-Brillant,TOKO EKAMBI,TOKO-EKAMBI,9/14/1992 0:00,Olympique Lyon (FRA),183,"Paris, France",48.856614,2.3522219,79,79,France,FR,France,FR,65.84704267
608,291,France,5,Defender,Kounde Jules,Jules Olivier,KOUNDE,KOUNDE,11/12/1998 0:00,FC Barcelona (ESP),178,"	Paris, France",48.856614,2.3522219,79,79,France,FR,France,FR,65.84704267
609,296,France,10,Forward,Mbappe Kylian,Kylian,MBAPPE LOTTIN,MBAPPE,12/20/1998 0:00,Paris Saint-Germain FC (FRA),178,"Paris, France",48.856614,2.3522219,79,79,France,FR,France,FR,65.84704267
610,306,France,20,Forward,Coman Kingsley,Kingsley Junior,COMAN,COMAN,6/13/1996 0:00,FC Bayern München (GER),180,"Paris, France",48.856614,2.3522219,79,79,France,FR,France,FR,65.84704267
611,309,France,23,Goalkeeper,Areola Alphonse,Alphonse Francis,AREOLA,AREOLA,2/27/1993 0:00,West Ham United FC (ENG),195,"Paris, France",48.856614,2.3522219,79,79,France,FR,France,FR,65.84704267
612,310,France,24,Defender,Konate Ibrahima,Ibrahima,KONATÉ,KONATE,5/25/1999 0:00,Liverpool FC (ENG),194,"Paris, France",48.856614,2.3522219,79,79,France,FR,France,FR,65.84704267
613,337,Germany,25,Defender,Bella Kotchap Armel,Armel,BELLA KOTCHAP,BELLA KOTCHAP,12/11/2001 0:00,Southampton FC (ENG),190,"Paris, France",48.856614,2.3522219,79,79,France,FR,France,FR,65.84704267
614,484,Morocco,17,Midfielder,Boufal Soane,Soane,BOUFAL,BOUFAL,9/17/1993 0:00,Angers SCO (FRA),170,"Paris, France",48.856614,2.3522219,79,79,France,FR,France,FR,65.84704267
615,730,Tunisia,3,Defender,Talbi Montassar,Montassar Omar,TALBI,TALBI,5/26/1998 0:00,FC Lorient (FRA),190,"Paris, France",48.856614,2.3522219,79,79,France,FR,France,FR,65.84704267
616,344,Ghana,6,Midfielder,Owusu Elisha,Elisha,OWUSU,OWUSU,11/7/1997 0:00,KAA Gent (BEL),182,"Montreuil, France",48.863812,2.448451,79,79,France,FR,France,FR,65.84704267
617,636,Senegal,13,Midfielder,Gueye Pape,Pape Alassane,GUEYE,PAPE GUEYE,1/24/1999 0:00,Olympique Marseille (FRA),189,"Montreuil, France",48.863812,2.448451,79,79,France,FR,France,FR,65.84704267
618,583,Qatar,12,Midfielder,Karim Boudiaf,Karim,BOUDIAF,BOUDIAF,9/16/1990 0:00,Al Duhail SC (QAT),190,"Rueil-Malmaison, France",48.882767,2.17693,79,79,France,FR,France,FR,65.84704267
619,741,Tunisia,14,Midfielder,Laidouni Aissa,Aïssa Bilal,LAÏDOUNI,LAÏDOUNI,12/13/1996 0:00,Ferencvárosi TC (HUN),183,"Montfermeil, France",48.902029,2.570773,79,79,France,FR,France,FR,65.84704267
620,298,France,12,Forward,Kolo Muani Randal,Randal,KOLO MUANI,KOLO MUANI,12/5/1998 0:00,Eintracht Frankfurt (GER),187,"Bondy, France",48.906008,2.481875,79,79,France,FR,France,FR,65.84704267
621,303,France,17,Defender,Saliba William,William Alain André Gabriel,SALIBA,SALIBA,3/24/2001 0:00,Arsenal FC (ENG),192,"Bondy, France",48.906008,2.481875,79,79,France,FR,France,FR,65.84704267
622,732,Tunisia,5,Midfielder,Ghandri Nader,Nader,GHANDRI,GHANDRI,2/18/1995 0:00,Club Africain (TUN),196,"Aubervilliers, France",48.912259,2.384049,79,79,France,FR,France,FR,65.84704267
623,292,France,6,Midfielder,Guendouzi Matteo,Mattéo Elias Kenzo,GUENDOUZI OLIE,GUENDOUZI,4/14/1999 0:00,Olympique Marseille (FRA),184,"Poissy, France",48.929584,2.046982,79,79,France,FR,France,FR,65.84704267
624,550,Portugal,5,Defender,Raphael Guerreiro,Raphael Adelino José,GUERREIRO,RAPHAEL,12/22/1993 0:00,Borussia Dortmund (GER),170,"Le Blanc-Mesnil, France",48.941345,2.46436,79,79,France,FR,France,FR,65.84704267
625,289,France,3,Defender,Disasi Axel,Axel Wilson Arthur,DISASI MHAKINIS BELHO,DISASI,3/11/1998 0:00,AS Monaco (FRA),190,"Gonesse, France",48.9864632,2.4497721,79,79,France,FR,France,FR,65.84704267
626,120,Cameroon,16,Goalkeeper,Epassy Devis,Devis Rogers,EPASSY MBOKA,EPASSY,2/2/1993 0:00,Abha Club (KSA),187,"Soisy-sous-Montmorency, France",48.988506,2.299731,79,79,France,FR,France,FR,65.84704267
627,645,Senegal,22,Defender,Ballo-toure Fode,Fode,BALLO,FODE BALLO,1/3/1997 0:00,AC Milan (ITA),182,"Conflans-Sainte-Honorine, France",49.000275,2.09178,79,79,France,FR,France,FR,65.84704267
628,304,France,18,Defender,Upamecano Dayot,Dayotchanculle Oswald,UPAMECANO,UPAMECANO,10/27/1998 0:00,FC Bayern München (GER),186,"Évreux, France",49.0270129,1.151361,79,79,France,FR,France,FR,65.84704267
629,108,Cameroon,4,Defender,Wooh Christopher,Christopher Maurice,WOOH,WOOH,9/18/2001 0:00,Stade Rennais FC (FRA),191,"Louvres, France",49.043002,2.506288,79,79,France,FR,France,FR,65.84704267
630,477,Morocco,10,Midfielder,Harit Amine,Amine,HARIT,HARIT,6/18/1997 0:00,Olympique Marseille (FRA),180,"Pontoise, France",49.050966,2.100645,79,79,France,FR,France,FR,65.84704267
631,297,France,11,Forward,Dembele Ousmane,Masour Ousmane,DEMBELE,DEMBELE,5/15/1997 0:00,FC Barcelona (ESP),178,"Vernon, France",49.091958,1.488107,79,79,France,FR,France,FR,65.84704267
635,294,France,8,Midfielder,Tchouameni Aurelien,Aurélien Djani,TCHOUAMENI,TCHOUAMENI,1/27/2000 0:00,Real Madrid CF (ESP),187,"Rouen, France",49.443232,1.099971,79,79,France,FR,France,FR,65.84704267
636,632,Senegal,9,Forward,Ndiaye Iliman,Iliman Cheikh Baroy,NDIAYE,ILIMAN,3/6/2000 0:00,Sheeld United FC (ENG),180,"Rouen, France",49.443232,1.099971,79,79,France,FR,France,FR,65.84704267
639,624,Senegal,1,Goalkeeper,Mendy Edouard,Edouard Osoque,MENDY,MENDY,3/1/1992 0:00,Chelsea FC (ENG),194,"Montivilliers, France",49.542538,0.19336,79,79,France,FR,France,FR,65.84704267
641,128,Cameroon,24,Defender,Ebosse Enzo,Enzo Jacques Rodolphe,EBOSSE,EBOSSE,3/11/1999 0:00,Udinese (ITA),185,"Amiens, France",49.894067,2.295753,79,79,France,FR,France,FR,65.84704267
651,288,France,2,Defender,Pavard Benjamin,Benjamin Jaques Marcel,PAVARD,PAVARD,3/28/1996 0:00,FC Bayern München (GER),186,"Maubeuge, France",50.280228,3.9674,79,79,France,FR,France,FR,65.84704267
659,348,Ghana,10,Forward,Ayew Andre,André Morgan Rami,AYEW,A. AYEW,12/17/1989 0:00,Al Sadd SC (QAT),175,"Seclin, France",50.545332,3.026566,79,79,France,FR,France,FR,65.84704267
661,290,France,4,Defender,Varane Raphael,Raphaël Xavier,VARANE,VARANE,4/25/1993 0:00,Manchester United FC (ENG),191,"Lille, France",50.62925,3.057256,79,79,France,FR,France,FR,65.84704267
203,648,Senegal,25,Forward,Jackson Nicolas,Nicolas,JACKSON,JACKSON,6/20/2001 0:00,Villarreal CF (ESP),186,"Banjul, Gambia",13.454375,-16.5753186,84,84,Gambia,GM,Gambia,GM,10.77610575
586,325,Germany,13,Midfielder,Mueller Thomas,Thomas,MÜLLER,MÜLLER,9/13/1989 0:00,FC Bayern München (GER),185,"Weilheim in Oberbayern, West Germany",47.8422367,11.1427463,86,86,Germany,DE,Germany,DE,56.11503765
587,323,Germany,11,Midfielder,Goetze Mario,Mario,GÖTZE,GÖTZE,6/3/1992 0:00,Eintracht Frankfurt (GER),176,"Memmingen, Germany",47.9837999,10.1801883,86,86,Germany,DE,Germany,DE,56.11503765
588,316,Germany,4,Defender,Ginter Matthias,Matthias Lukas,GINTER,GINTER,1/19/1994 0:00,SC Freiburg (GER),189,"Freiburg im Breisgau, Germany",47.9990077,7.8421043,86,86,Germany,DE,Germany,DE,56.11503765
589,747,Tunisia,20,Defender,Drager Mohamed,Mohamed,DRAGER,DRAGER,6/25/1996 0:00,FC Luzern (SUI),180,"Freiburg im Breisgau, Germany",47.9990077,7.8421043,86,86,Germany,DE,Germany,DE,56.11503765
590,332,Germany,20,Defender,Guenter Christian,Christian,GÜNTER,GÜNTER,2/28/1993 0:00,SC Freiburg (GER),184,"	Villingen-Schwenningen, Germany",48.0594021,8.4640869,86,86,Germany,DE,Germany,DE,56.11503765
591,184,Croatia,2,Defender,Stanisic Josip,Josip,STANIŠIĆ,STANIŠIĆ,4/2/2000 0:00,FC Bayern München (GER),186,"Munich, Germany",48.1351253,11.5819806,86,86,Germany,DE,Germany,DE,56.11503765
592,336,Germany,24,Forward,Adeyemi Karim,Karim David,ADEYEMI,ADEYEMI,1/18/2002 0:00,Borussia Dortmund (GER),180,"Munich, Germany",48.1351253,11.5819806,86,86,Germany,DE,Germany,DE,56.11503765
593,318,Germany,6,Midfielder,Kimmich Joshua,Joshua Walter,KIMMICH,KIMMICH,2/8/1995 0:00,FC Bayern München (GER),177,"Rottweil, Germany",48.1652577,8.628453,86,86,Germany,DE,Germany,DE,56.11503765
597,317,Germany,5,Defender,Kehrer Thilo,Jan Thilo,KEHRER,KEHRER,9/21/1996 0:00,West Ham United FC (ENG),186,"Tübingen, Germany",48.5216364,9.0576448,86,86,Germany,DE,Germany,DE,56.11503765
599,322,Germany,10,Forward,Gnabry Serge,Serge David,GNABRY,GNABRY,7/14/1995 0:00,FC Bayern München (GER),176,"Stuttgart, Germany",48.7758459,9.1829321,86,86,Germany,DE,Germany,DE,56.11503765
600,326,Germany,14,Midfielder,Musiala Jamal,Jamal,MUSIALA,MUSIALA,2/26/2003 0:00,FC Bayern München (GER),180,"Stuttgart, Germany",48.7758459,9.1829321,86,86,Germany,DE,Germany,DE,56.11503765
606,335,Germany,23,Defender,Schlotterbeck Nico,Nico Cedric,SCHLOTTERBECK,SCHLOTTERBECK,12/1/1999 0:00,Borussia Dortmund (GER),191,"Waiblingen, Germany",48.8293519,9.3185739,86,86,Germany,DE,Germany,DE,56.11503765
634,330,Germany,18,Midfielder,Hofmann Jonas,Jonas,HOFMANN,HOFMANN,7/14/1992 0:00,VfL Borussia Mönchengladbach (GER),176,"Heidelberg, Germany",49.3987524,8.6724335,86,86,Germany,DE,Germany,DE,56.11503765
637,324,Germany,12,Goalkeeper,Trapp Kevin,Kevin Christian,TRAPP,TRAPP,7/8/1990 0:00,Eintracht Frankfurt (GER),189,"Merzig, West Germany",49.4489588,6.6437843,86,86,Germany,DE,Germany,DE,56.11503765
638,315,Germany,3,Defender,Raum David,David,RAUM,RAUM,4/22/1998 0:00,RB Leipzig (GER),180,"Nuremberg, Germany",49.4521018,11.0766654,86,86,Germany,DE,Germany,DE,56.11503765
644,197,Croatia,15,Midfielder,Pasalic Mario,Mario,PAŠALIĆ,PAŠALIĆ,2/9/1995 0:00,Atalanta Bergamo (ITA),189,"Mainz, Germany",49.9928617,8.2472526,86,86,Germany,DE,Germany,DE,56.11503765
647,327,Germany,15,Defender,Suele Niklas,Niklas,SÜLE,SÜLE,9/3/1995 0:00,Borussia Dortmund (GER),195,"Frankfurt, Germany",50.1109221,8.6821267,86,86,Germany,DE,Germany,DE,56.11503765
669,319,Germany,7,Forward,Havertz Kai,Kai Lukas,HAVERTZ,HAVERTZ,6/11/1999 0:00,Chelsea FC (ENG),190,"Aachen, Germany",50.7753455,6.0838868,86,86,Germany,DE,Germany,DE,56.11503765
681,625,Senegal,2,Defender,Jakobs Ismail,Ismail Joshua,JAKOBS,JAKOBS,8/17/1999 0:00,AS Monaco (FRA),184,"Cologne, Germany",50.937531,6.9602786,86,86,Germany,DE,Germany,DE,56.11503765
689,334,Germany,22,Goalkeeper,Ter Stegen Marc-andre,Marc-André,TER STEGEN,TER STEGEN,4/30/1992 0:00,FC Barcelona (ESP),187,"Mönchengladbach, Germany",51.1941686,6.4315392,86,86,Germany,DE,Germany,DE,56.11503765
697,328,Germany,16,Defender,Klostermann Lukas,Lukas Manuel,KLOSTERMANN,KLOSTERMANN,6/3/1995 0:00,RB Leipzig (GER),187,"Herdecke, Germany",51.4031667,7.4328376,86,86,Germany,DE,Germany,DE,56.11503765
701,331,Germany,19,Midfielder,Sane Leroy,Leroy Aziz,SANÉ,SANE,1/11/1996 0:00,FC Bayern München (GER),183,"Essen, Germany",51.4556432,7.0115552,86,86,Germany,DE,Germany,DE,56.11503765
703,320,Germany,8,Midfielder,Goretzka Leon,Leon Christoph,GORETZKA,GORETZKA,2/6/1995 0:00,FC Bayern München (GER),189,"Bochum, Germany",51.4818445,7.2162363,86,86,Germany,DE,Germany,DE,56.11503765
711,333,Germany,21,Midfielder,Guendogan Ilkay,Ilkay,GÜNDOGAN,GÜNDOGAN,10/24/1990 0:00,Manchester City FC (ENG),180,"Gelsenkirchen, Germany",51.5187651,7.0838411,86,86,Germany,DE,Germany,DE,56.11503765
715,313,Germany,1,Goalkeeper,Neuer Manuel,Manuel Peter,NEUER,NEUER,3/27/1986 0:00,FC Bayern München (GER),193,"Gelsenkirchen, West Germany",51.5404553,7.0487091,86,86,Germany,DE,Germany,DE,56.11503765
716,725,Switzerland,24,Goalkeeper,Koehn Philipp,Philipp Francois,KÖHN,KÖHN,4/2/1998 0:00,FC Red Bull Salzburg (AUT),190,"Dinslaken, Germany",51.5674264,6.747534,86,86,Germany,DE,Germany,DE,56.11503765
747,826,Wales,21,Goalkeeper,Davies Adam,Adam Rhys,DAVIES,A DAVIES,7/17/1992 0:00,Sheeld United FC (ENG),185,"Rinteln, Germany",52.2020461,9.0759703,86,86,Germany,DE,Germany,DE,56.11503765
765,321,Germany,9,Forward,Fuellkrug Niclas,Niclas,FÜLLKRUG,FÜLLKRUG,2/9/1993 0:00,SV Werder Bremen (GER),188,"Hanover, Germany",52.3758916,9.7320104,86,86,Germany,DE,Germany,DE,56.11503765
772,314,Germany,2,Defender,Ruediger Antonio,Antonio,RÜDIGER,RÜDIGER,3/3/1993 0:00,Real Madrid CF (ESP),190,"Berlin, Germany",52.5200066,13.404954,86,86,Germany,DE,Germany,DE,56.11503765
782,329,Germany,17,Midfielder,Brandt Julian,Julian,BRANDT,BRANDT,5/2/1996 0:00,Borussia Dortmund (GER),183,"Bremen, Germany",53.0792962,8.8016937,86,86,Germany,DE,Germany,DE,56.11503765
792,117,Cameroon,13,Forward,Choupo-moting Eric Maxim,Eric Maxim,CHOUPO-MOTING,CHOUPO-MOTING,3/23/1989 0:00,FC Bayern München (GER),191,"Hamburg, West Germany",53.5488282,9.9871703,86,86,Germany,DE,Germany,DE,56.11503765
147,149,Canada,19,Forward,Davies Alphonso,Alphonso Boyle,DAVIES,DAVIES,11/2/2000 0:00,FC Bayern München (GER),183,"Buduburam, Ghana",5.5247986,-0.4738293,87,87,Ghana,GH,Ghana,GH,23.01366355
148,362,Ghana,24,Midfielder,Sowah Kamal,Kamal,SOWAH,SOWAH,1/9/2000 0:00,Club Brugge (BEL),179,"Sabon Zango, Ghana",5.5524939,-0.2350201,87,87,Ghana,GH,Ghana,GH,23.01366355
149,346,Ghana,8,Midfielder,Kyereh Daniel-ko,Daniel-Ko,KYEREH,KYERE,3/8/1996 0:00,SC Freiburg (GER),179,"Accra, Ghana",5.6037168,-0.1869644,87,87,Ghana,GH,Ghana,GH,23.01366355
150,349,Ghana,11,Midfielder,Bukari Osman,Osman,BUKARI,OSMAN,12/13/1998 0:00,FK Crvena Zvezda (SRB),170,"Accra, Ghana",5.6037168,-0.1869644,87,87,Ghana,GH,Ghana,GH,23.01366355
151,350,Ghana,12,Goalkeeper,Danlad Ibrahim,Danlad,IBRAHIM,DANLAD,12/2/2002 0:00,Asante Kotoko SC (GHA),181,"Accra, Ghana",5.6037168,-0.1869644,87,87,Ghana,GH,Ghana,GH,23.01366355
152,352,Ghana,14,Defender,Mensah Gideon,Gideon,MENSAH,MENSAH,7/18/1998 0:00,AJ Auxerre (FRA),178,"Accra, Ghana",5.6037168,-0.1869644,87,87,Ghana,GH,Ghana,GH,23.01366355
153,354,Ghana,16,Goalkeeper,Nurudeen Manaf,Abdul Manaf,NURUDEEN,MANAF,2/8/1999 0:00,KAS Eupen (BEL),190,"Accra, Ghana",5.6037168,-0.1869644,87,87,Ghana,GH,Ghana,GH,23.01366355
154,356,Ghana,18,Defender,Amartey Daniel,Daniel,AMARTEY,AMARTEY,12/21/1994 0:00,Leicester City FC (ENG),186,"Accra, Ghana",5.6037168,-0.1869644,87,87,Ghana,GH,Ghana,GH,23.01366355
155,358,Ghana,20,Midfielder,Kudus Mohammed,Kudus,MOHAMMED,KUDUS,8/2/2000 0:00,AFC Ajax (NED),175,"Accra, Ghana",5.6037168,-0.1869644,87,87,Ghana,GH,Ghana,GH,23.01366355
156,359,Ghana,21,Midfielder,Abdul Samed Salis,Salis,ABDUL SAMED,SALIS,3/26/2000 0:00,RC Lens (FRA),179,"Accra, Ghana",5.6037168,-0.1869644,87,87,Ghana,GH,Ghana,GH,23.01366355
158,353,Ghana,15,Defender,Aidoo Joseph,Joseph,AIDOO,AIDOO,9/29/1995 0:00,RC Celta Vigo (ESP),184,"Tema, Ghana",5.7348119,0.0302354,87,87,Ghana,GH,Ghana,GH,23.01366355
160,343,Ghana,5,Midfielder,Partey Thomas,Thomas Teye,PARTEY,PARTEY,6/13/1993 0:00,Arsenal FC (ENG),185,"Krobo Odumase, Ghana",5.9568227,0.0513246,87,87,Ghana,GH,Ghana,GH,23.01366355
162,342,Ghana,4,Defender,Salisu Mohammed,Mohammed Salisu,ABDUL KARIM,SALISU,4/19/1999 0:00,Southampton FC (ENG),191,"Kumasi, Ghana",6.6666004,-1.6162709,87,87,Ghana,GH,Ghana,GH,23.01366355
163,351,Ghana,13,Midfielder,Afriyie Daniel,Daniel,AFRIYIE BERNIEH,BERNIEH,6/26/2001 0:00,Hearts Of Oak SC (GHA),170,"Kumasi, Ghana",6.6666004,-1.6162709,87,87,Ghana,GH,Ghana,GH,23.01366355
164,364,Ghana,26,Defender,Alidu Seidu,Seidu,ALIDU,SEIDU,6/4/2000 0:00,Clermont Foot (FRA),173,"Kumasi, Ghana",6.6666004,-1.6162709,87,87,Ghana,GH,Ghana,GH,23.01366355
165,580,Qatar,9,Forward,Mohammed Muntari,Mohammed,MUNTARI,MUNTARI,12/20/1993 0:00,Al Duhail SC (QAT),192,"Kumasi, Ghana",6.6666004,-1.6162709,87,87,Ghana,GH,Ghana,GH,23.01366355
167,360,Ghana,22,Midfielder,Sulemana Kamaldeen,Kamaldeen,SULEMANA,SULEMANA,2/15/2002 0:00,Stade Rennais FC (FRA),174,"Techiman, Ghana",7.5908801,-1.9343555,87,87,Ghana,GH,Ghana,GH,23.01366355
170,339,Ghana,1,Goalkeeper,Zigi Lawrence Ati,Lawrence Ati,ZIGI,ZIGI,11/29/1996 0:00,FC St. Gallen (SUI),188,"Tamale, Ghana",9.4034226,-0.842416,87,87,Ghana,GH,Ghana,GH,23.01366355
171,345,Ghana,7,Midfielder,Issahaku Fatawu,Abdul Fatawu,ISSAHAKU,FATAWU,3/8/2004 0:00,Sporting CP (POR),177,"Tamale, Ghana",9.4034226,-0.842416,87,87,Ghana,GH,Ghana,GH,23.01366355
172,355,Ghana,17,Defender,Baba Abdul Rahman,Abdul Rahman,BABA,BABA,7/2/1994 0:00,Reading FC (ENG),180,"Tamale, Ghana",9.4034226,-0.842416,87,87,Ghana,GH,Ghana,GH,23.01366355
198,558,Portugal,13,Defender,Danilo Pereira,Danilo Luis Hélio,PEREIRA,DANILO,9/9/1991 0:00,Paris Saint-Germain FC (FRA),188,"Bissau, Guinea-Bissau",11.803749,-15.180413,98,98,Guinea-Bissau,GW,Guinea-Bissau,GW,17.26042444
199,700,Spain,25,Forward,Fati Ansu,Anssumane,FATI VIEIRA,ANSU FATI,10/31/2002 0:00,FC Barcelona (ESP),178,"Bissau, Guinea-Bissau",11.803749,-15.180413,98,98,Guinea-Bissau,GW,Guinea-Bissau,GW,17.26042444
288,373,Iran,9,Forward,Taremi Mehdi,Mehdi,TAREMI,TAREMI,7/18/1992 0:00,FC Porto (POR),185,"Bushehr, Iran",28.9144913,50.8279019,107,107,Iran,IR,"Iran, Islamic Republic of",IR,75.77321354
290,388,Iran,24,Goalkeeper,Hosseini Hossein,Seyedhossein,HOSSEINI,H. HOSSEINI,6/30/1992 0:00,Esteghlal Tehran FC (IRN),187,"Shiraz, Iran",29.5926119,52.5835646,107,107,Iran,IR,"Iran, Islamic Republic of",IR,75.77321354
291,377,Iran,13,Defender,Kanani Hossein,Mohammadhossein,KANANI ZADEGAN,KANANI,3/23/1994 0:00,Al Ahli SC (QAT),188,"Bandar-e Mahshahr, Iran",30.5549969,49.187884,107,107,Iran,IR,"Iran, Islamic Republic of",IR,75.77321354
307,365,Iran,1,Goalkeeper,Beiranvand Alireza,Ali Reza,SAFARBEIRANVAND,ALIREZA BEIRANVAND,9/21/1992 0:00,Perspolis Tehran (IRN),194,"Sarab-e Yas, Khorramabad, Iran",33.430291,48.3427034,107,107,Iran,IR,"Iran, Islamic Republic of",IR,75.77321354
312,375,Iran,11,Midfielder,Amiri Vahid,Vahid,AMIRI,V. AMIRI,4/2/1988 0:00,Perspolis Tehran (IRN),179,"Darreh-ye Badam, Khorramabad, Iran",33.6006047,48.0153141,107,107,Iran,IR,"Iran, Islamic Republic of",IR,75.77321354
321,367,Iran,3,Defender,Hajisafi Ehsan,Ehsan,HAJI SAFI,E. HAJISAFI,2/25/1990 0:00,AEK Athens (GRE),178,"Kashan, Iran",33.9910347,51.4235414,107,107,Iran,IR,"Iran, Islamic Republic of",IR,75.77321354
353,380,Iran,16,Midfielder,Torabi Mehdi,Mahdi,TORABI,M. TORABI,9/10/1994 0:00,Persepolis FC (IRN),180,"Eshtehard, Iran",35.7211614,50.3684045,107,107,Iran,IR,"Iran, Islamic Republic of",IR,75.77321354
354,369,Iran,5,Defender,Mohammadi Milad,Milad,MOHAMMADIKESHMARZI,M. MOHAMMADI,9/29/1993 0:00,AEK Athens (GRE),178,"Tehran, Iran",35.7218583,51.3346954,107,107,Iran,IR,"Iran, Islamic Republic of",IR,75.77321354
355,376,Iran,12,Goalkeeper,Niazmand Payam,Seyed Payam,NIAZMANDGHADER,PAYAM,4/6/1995 0:00,Sepahan FC (IRN),194,"Tehran, Iran",35.7218583,51.3346954,107,107,Iran,IR,"Iran, Islamic Republic of",IR,75.77321354
356,379,Iran,15,Defender,Cheshmi Roozbeh,Roozbeh,CHESHMI,ROOZBEH,7/24/1993 0:00,Esteghlal Tehran FC (IRN),194,"Tehran, Iran",35.7218583,51.3346954,107,107,Iran,IR,"Iran, Islamic Republic of",IR,75.77321354
357,383,Iran,19,Defender,Hosseini Majid,Seyedmajid,HOSSEINI,MAJID,6/20/1996 0:00,Kayserispor (TUR),187,"Tehran, Iran",35.7218583,51.3346954,107,107,Iran,IR,"Iran, Islamic Republic of",IR,75.77321354
358,386,Iran,22,Goalkeeper,Abedzadeh Amir,Amir,ABEDZADEH,ABEDZADEH,4/26/1993 0:00,SD Ponferradina (ESP),186,"Tehran, Iran",35.7218583,51.3346954,107,107,Iran,IR,"Iran, Islamic Republic of",IR,75.77321354
361,382,Iran,18,Midfielder,Karimi Ali,Ali,KARIMI,A. KARIMI,2/11/1994 0:00,Kayserispor (TUR),185,"Karaj, Iran",35.8438581,50.9714995,107,107,Iran,IR,"Iran, Islamic Republic of",IR,75.77321354
370,389,Iran,25,Defender,Jalali Abolfazl,Seyedabolfazl,JALALIBOORANI,JALALI,6/26/1998 0:00,Esteghlal Tehran FC (IRN),177,"Amol, Iran",36.4706318,52.3466278,107,107,Iran,IR,"Iran, Islamic Republic of",IR,75.77321354
372,372,Iran,8,Defender,Pouraliganji Morteza,Morteza,POURALI GANJI,M. POURALIGANJI,4/19/1992 0:00,Perspolis Tehran (IRN),185,"Babol, Iran",36.5386629,52.6764543,107,107,Iran,IR,"Iran, Islamic Republic of",IR,75.77321354
373,387,Iran,23,Defender,Rezaeian Ramin,Ramin,REZAEIANSEMESKANDI,RAMIN,3/21/1990 0:00,Sepahan FC (IRN),184,"Sari, Iran",36.5658729,53.0586328,107,107,Iran,IR,"Iran, Islamic Republic of",IR,75.77321354
376,368,Iran,4,Defender,Khalilzadeh Shoja,Shojae,KHALILZADEH,SHOJA,5/14/1989 0:00,Al Ahli SC (QAT),179,"Bahnemir, Mazandaran, Iran",36.6672199,52.7622483,107,107,Iran,IR,"Iran, Islamic Republic of",IR,75.77321354
377,371,Iran,7,Midfielder,Jahanbakhsh Alireza,Alireza,JAHAN BAKHSH JIRANDEH,A. JAHANBAKHSH,8/11/1993 0:00,Feyenoord Rotterdam (NED),181,"Jirandeh, Iran",36.7011948,49.7927514,107,107,Iran,IR,"Iran, Islamic Republic of",IR,75.77321354
387,385,Iran,21,Midfielder,Noorollahi Ahmad,Ahmad,NOOROLLAHI,AHMAD,2/1/1993 0:00,Shabab Al Ahli Club (UAE),185,"Azadshahr, Iran",37.0871944,55.1738513,107,107,Iran,IR,"Iran, Islamic Republic of",IR,75.77321354
391,384,Iran,20,Forward,Azmoun Sardar,Sardar,AZMOUN,S. AZMOUN,1/1/1995 0:00,Bayer 04 Leverkusen (GER),186,"Gonbad-e Kavus, Iran",37.2523295,55.1671199,107,107,Iran,IR,"Iran, Islamic Republic of",IR,75.77321354
397,370,Iran,6,Midfielder,Ezatolahi Saeid,Saeid,EZATOLAHI AFAGH,S. EZATOLAHI,10/1/1996 0:00,Vejle BK (DEN),190,"Bandar-e Anzali, Iran",37.4639089,49.4798635,107,107,Iran,IR,"Iran, Islamic Republic of",IR,75.77321354
403,366,Iran,2,Defender,Moharrami Sadegh,Sadegh,MOHARRAMI GETGASARI,MOHARRAMI,3/1/1996 0:00,GNK Dinamo Zagreb (CRO),174,"Hashtpar, Iran",37.793322,48.904528,107,107,Iran,IR,"Iran, Islamic Republic of",IR,75.77321354
406,374,Iran,10,Forward,Ansarifard Karim,Karim,ANSARI FARD,KARIM,4/3/1990 0:00,AC Omonia (CYP),186,"Ardabil, Iran",38.2431757,48.2976116,107,107,Iran,IR,"Iran, Islamic Republic of",IR,75.77321354
407,381,Iran,17,Midfielder,Gholizadeh Ali,Ali,GHOLI ZADEHNOJEHDEH,A. GHOLIZADEH,3/10/1996 0:00,Sporting Charleroi (BEL),176,"Ardabil, Iran",38.2431757,48.2976116,107,107,Iran,IR,"Iran, Islamic Republic of",IR,75.77321354
305,575,Qatar,4,Defender,Mohammed Waad,Mohammed Waad A,ALBAYATI,WAAD,9/18/1999 0:00,Al Sadd SC (QAT),183,"Baghdad, Iraq",33.315241,44.3660671,108,108,Iraq,IQ,Iraq,IQ,33.62001492
306,586,Qatar,15,Defender,Bassam Alrawi,Bassam Husham A,ALRAWI,BASSAM,12/16/1997 0:00,Al Duhail SC (QAT),175,"Baghdad, Iraq",33.315241,44.3660671,108,108,Iraq,IQ,Iraq,IQ,33.62001492
459,540,Poland,21,Midfielder,Zalewski Nicola,Nicola,ZALEWSKI,ZALEWSKI,1/23/2002 0:00,AS Roma (ITA),175,"Tivoli, Italy",41.959817,12.8022261,112,112,Italy,IT,Italy,IT,68.04430092
480,488,Morocco,21,Forward,Cheddira Walid,Walid,CHEDDIRA,CHEDDIRA,1/22/1998 0:00,SSC Bari (ITA),187,"Loreto, Italy",43.4363086,13.6189078,112,112,Italy,IT,Italy,IT,68.04430092
525,312,France,26,Forward,Thuram Marcus,Marcus Lilian,THURAM-ULIEN,THURAM,8/6/1997 0:00,VfL Borussia Mönchengladbach (GER),192,"Parma, Italy",44.801485,10.3279036,112,112,Italy,IT,Italy,IT,68.04430092
222,270,England,10,Forward,Sterling Raheem,Raheem,STERLING,STERLING,12/8/1994 0:00,Chelsea FC (ENG),170,"Kingston, Jamaica",18.0178743,-76.8099041,113,113,Jamaica,JM,Jamaica,JM,5.385819543
300,411,Japan,22,Defender,Yoshida Maya,Maya,YOSHIDA,YOSHIDA,8/24/1988 0:00,FC Schalke 04 (GER),189,"Nagasaki, Japan",32.7503334,129.8778888,114,114,Japan,JP,Japan,JP,118.0531012
301,392,Japan,3,Defender,Taniguchi Shogo,Shogo,TANIGUCHI,TANIGUCHI,7/15/1991 0:00,Kawasaki Frontale (JPN),183,"Kumamoto, Kumamoto, Japan",32.8032164,130.7079369,114,114,Japan,JP,Japan,JP,118.0531012
313,405,Japan,16,Defender,Tomiyasu Takehiro,Takehiro,TOMIYASU,TOMIYASU,11/5/1998 0:00,Arsenal FC (ENG),187,"Fukuoka, Japan",33.5901838,130.4016888,114,114,Japan,JP,Japan,JP,118.0531012
314,404,Japan,15,Midfielder,Kamada Daichi,Daichi,KAMADA,KAMADA,8/5/1996 0:00,Eintracht Frankfurt (GER),180,"Ehime, Japan",33.6025306,132.7857583,114,114,Japan,JP,Japan,JP,118.0531012
318,394,Japan,5,Defender,Nagatomo Yuto,Yuto,NAGATOMO,NAGATOMO,9/12/1986 0:00,FC Tokyo (JPN),170,"Saijō, Ehime, Japan",33.919495,133.1811444,114,114,Japan,JP,Japan,JP,118.0531012
326,399,Japan,10,Midfielder,Minamino Takumi,Takumi,MINAMINO,MINAMINO,1/16/1995 0:00,AS Monaco (FRA),174,"Izumisano, Japan",34.4068926,135.3273027,114,114,Japan,JP,Japan,JP,118.0531012
328,414,Japan,25,Forward,Maeda Daizen,Daizen,MAEDA,MAEDA,10/20/1997 0:00,Celtic FC (SCO),173,"Taishi, Osaka, Japan",34.6468184,135.5033929,114,114,Japan,JP,Japan,JP,118.0531012
329,415,Japan,26,Defender,Ito Hiroki,Hiroki,ITO,H. ITO,5/12/1999 0:00,VfB Stuttgart (GER),188,"Hamamatsu, Japan",34.7102752,137.7274159,114,114,Japan,JP,Japan,JP,118.0531012
330,397,Japan,8,Midfielder,Doan Ritsu,Ritsu,DOAN,DOAN,6/16/1998 0:00,SC Freiburg (GER),172,"Amagasaki, Hyogo, Japan",34.7327113,135.4057914,114,114,Japan,JP,Japan,JP,118.0531012
334,409,Japan,20,Forward,Machino Shuto,Shuto,MACHINO,MACHINO,9/30/1999 0:00,Shonan Bellmare (JPN),185,"Iga, Mie, Japan",34.7685703,136.1298712,114,114,Japan,JP,Japan,JP,118.0531012
335,402,Japan,13,Midfielder,Morita Hidemasa,Hidemasa,MORITA,MORITA,5/10/1995 0:00,Sporting CP (POR),177,"Takatsuki, Osaka, Japan",34.846193,135.6174134,114,114,Japan,JP,Japan,JP,118.0531012
337,407,Japan,18,Forward,Asano Takuma,Takuma,ASANO,ASANO,11/10/1994 0:00,VfL Bochum (GER),173,"Komono, Japan",35.0199868,136.5073674,114,114,Japan,JP,Japan,JP,118.0531012
339,403,Japan,14,Midfielder,Ito Junya,Junya,ITO,ITO,3/9/1993 0:00,Stade Reims (FRA),176,"Yokosuka, Kanagawa, Japan",35.281498,139.6721655,114,114,Japan,JP,Japan,JP,118.0531012
342,395,Japan,6,Midfielder,Endo Wataru,Wataru,ENDO,ENDO,2/9/1993 0:00,VfB Stuttgart (GER),178,"Totsuka-ku, Yokohama, Japan",35.4014751,139.5381824,114,114,Japan,JP,Japan,JP,118.0531012
343,391,Japan,2,Defender,Yamane Miki,Miki,YAMANE,YAMANE,12/22/1993 0:00,Kawasaki Frontale (JPN),178,"Yokohama, Kanagawa, Japan",35.4436739,139.6379639,114,114,Japan,JP,Japan,JP,118.0531012
344,393,Japan,4,Defender,Itakura Kou,Kou,ITAKURA,ITAKURA,1/27/1997 0:00,VfL Borussia Mönchengladbach (GER),186,"Yokohama, Japan",35.4436739,139.6379639,114,114,Japan,JP,Japan,JP,118.0531012
345,398,Japan,9,Midfielder,Mitoma Kaoru,Kaoru,MITOMA,MITOMA,5/20/1997 0:00,Brighton & Hove Albion FC (ENG),178,"Kanagawa, Japan",35.4913535,139.284143,114,114,Japan,JP,Japan,JP,118.0531012
346,400,Japan,11,Midfielder,Kubo Takefusa,Takefusa,KUBO,KUBO,6/4/2001 0:00,Real Sociedad (ESP),173,"Kawasaki, Kanagawa, Japan",35.5308325,139.7029125,114,114,Japan,JP,Japan,JP,118.0531012
350,406,Japan,17,Midfielder,Tanaka Ao,Ao,TANAKA,TANAKA,9/10/1998 0:00,Fortuna Düsseldorf (GER),180,"Miyamae-ku, Kawasaki, Japan",35.5857512,139.5738364,114,114,Japan,JP,Japan,JP,118.0531012
351,401,Japan,12,Goalkeeper,Gonda Shuichi,Shuichi,GONDA,GONDA,3/3/1989 0:00,Shimizu S-Pulse (JPN),187,"Setagaya, Tokyo, Japan",35.6465615,139.6532924,114,114,Japan,JP,Japan,JP,118.0531012
352,413,Japan,24,Midfielder,Soma Yuki,Yuki,SOMA,SOMA,2/25/1997 0:00,Nagoya Grampus (JPN),166,"Tokyo, Japan",35.6761919,139.6503106,114,114,Japan,JP,Japan,JP,118.0531012
362,408,Japan,19,Defender,Sakai Hiroki,Hiroki,SAKAI,SAKAI,4/12/1990 0:00,Urawa Reds (JPN),185,"Kashiwa, Japan",35.8675958,139.9757575,114,114,Japan,JP,Japan,JP,118.0531012
364,390,Japan,1,Goalkeeper,Kawashima Eiji,Eiji,KAWASHIMA,KAWASHIMA,3/20/1983 0:00,RC Strasbourg (FRA),185,"Yono, Saitama, Japan",35.9962513,139.4466005,114,114,Japan,JP,Japan,JP,118.0531012
368,410,Japan,21,Forward,Ueda Ayase,Ayase,UEDA,UEDA,8/28/1998 0:00,Cercle Brugge (BEL),182,"Mito, Ibaraki, Japan",36.3658764,140.4713723,114,114,Japan,JP,Japan,JP,118.0531012
441,396,Japan,7,Midfielder,Shibasaki Gaku,Gaku,SHIBASAKI,GAKU,5/28/1992 0:00,CD Leganés (ESP),175,"Noheji, Aomori, Japan",40.8644613,141.1287144,114,114,Japan,JP,Japan,JP,118.0531012
112,46,Australia,20,Defender,Deng Thomas,Thomas Jok,DENG,DENG,3/20/1997 0:00,Albirex Niigata (JPN),178,"Nairobi, Kenya",-1.2920659,36.8219462,119,119,Kenya,KE,Kenya,KE,33.61267873
130,37,Australia,11,Forward,Mabil Awer,Awer Bul,MABIL,MABIL,9/15/1995 0:00,Cádiz CF (ESP),179,"Kakuma, Kenya",3.7167637,34.8568982,119,119,Kenya,KE,Kenya,KE,33.61267873
221,464,Mexico,23,Defender,Gallardo Jesus,Jesus Daniel,GALLARDO VASCONCELOS,J. GALLARDO,8/15/1994 0:00,CF Monterrey (MEX),174,"Cárdenas, Tabasco, Mexico",18.0012067,-93.3732339,144,144,Mexico,MX,Mexico,MX,149.3310928
223,458,Mexico,17,Forward,Pineda Orbelin,Orbelin,PINEDA ALVARADO,O. PINEDA,3/24/1996 0:00,AEK Athens (GRE),169,"Coyuca de Catalán, Guerrero, Mexico",18.3301952,-100.7013332,144,144,Mexico,MX,Mexico,MX,149.3310928
224,465,Mexico,24,Midfielder,Chavez Luis,Luis Gerardo,CHAVEZ MAGALLON,L. CHAVEZ,1/15/1996 0:00,CF Pachuca (MEX),178,"Cihuatlán, Jalisco, Mexico",19.2376572,-104.5684406,144,144,Mexico,MX,Mexico,MX,149.3310928
225,467,Mexico,26,Defender,Alvarez Kevin,Kevin Nahin,ALVAREZ CAMPOS,K. ALAVREZ,1/15/1999 0:00,CF Pachuca (MEX),176,"Colima, Mexico",19.2452342,-103.7240868,144,144,Mexico,MX,Mexico,MX,149.3310928
226,451,Mexico,10,Forward,Vega Alexis,Ernesto Alexis,VEGA ROJAS,A. VEGA,11/25/1997 0:00,CD Guadalajara (MEX),175,"Mexico City, Mexico",19.4326077,-99.133208,144,144,Mexico,MX,Mexico,MX,149.3310928
227,463,Mexico,22,Forward,Lozano Hirving,Hirving Rodrigo,LOZANO BAHENA,H. LOZANO,7/30/1995 0:00,SSC Napoli (ITA),176,"Mexico City, Mexico",19.4326077,-99.133208,144,144,Mexico,MX,Mexico,MX,149.3310928
228,445,Mexico,4,Defender,Alvarez Edson,Edson Omar,ALVAREZ VELAZQUEZ,E. ALVAREZ,10/24/1997 0:00,AFC Ajax (NED),180,"Tlalnepantla, Mexico",19.5345279,-99.1907364,144,144,Mexico,MX,Mexico,MX,149.3310928
229,450,Mexico,9,Forward,Jimenez Raul,Raul Alonso,JIMENEZ RODRIGUEZ,RAUL,5/5/1991 0:00,Wolverhampton Wanderers FC (ENG),188,"Tepeji, Hidalgo, Mexico",19.9114508,-99.3506604,144,144,Mexico,MX,Mexico,MX,149.3310928
230,442,Mexico,1,Goalkeeper,Talavera Alfredo,Alfredo,TALAVERA DIAZ,A. TALAVERA,9/18/1982 0:00,FC Juárez (MEX),188,"La Barca, Jalisco, Mexico",20.2906606,-102.5458219,144,144,Mexico,MX,Mexico,MX,149.3310928
232,466,Mexico,25,Forward,Alvarado Roberto,Roberto Carlos,ALVARADO HERNÁNDEZ,R. ALVARADO,9/7/1998 0:00,CD Guadalajara (MEX),176,"Salamanca, Guanajuato, Mexico",20.5739314,-101.1957172,144,144,Mexico,MX,Mexico,MX,149.3310928
233,443,Mexico,2,Defender,Araujo Nestor,Nestor Alejandro,ARAUJO RAZO,N. ARAUJO,8/29/1991 0:00,Club América (MEX),187,"Guadalajara, Jalisco, Mexico",20.6596988,-103.3496092,144,144,Mexico,MX,Mexico,MX,149.3310928
234,454,Mexico,13,Goalkeeper,Ochoa Guillermo,Francisco Guillermo,OCHOA MAGAÑA,G. OCHOA,7/13/1985 0:00,Club América (MEX),185,"Guadalajara, Jalisco, Mexico",20.6596988,-103.3496092,144,144,Mexico,MX,Mexico,MX,149.3310928
235,459,Mexico,18,Midfielder,Guardado Andres,Jose Andres,GUARDADO HERNANDEZ,A. GUARDADO,9/28/1986 0:00,Real Betis (ESP),167,"Guadalajara, Mexico",20.6596988,-103.3496092,144,144,Mexico,MX,Mexico,MX,149.3310928
236,447,Mexico,6,Defender,Arteaga Gerardo,Gerardo Daniel,ARTEAGA ZAMORA,G. ARTEAGA,9/7/1998 0:00,KRC Genk (BEL),175,"Zapopan, Jalisco, Mexico",20.6719563,-103.416501,144,144,Mexico,MX,Mexico,MX,149.3310928
237,461,Mexico,20,Forward,Martin Henry,Henry Josue,MARTIN MEX,H. MARTIN,11/18/1992 0:00,Club América (MEX),180,"Mérida, Yucatán, Mexico",20.9673702,-89.5925857,144,144,Mexico,MX,Mexico,MX,149.3310928
244,453,Mexico,12,Goalkeeper,Cota Rodolfo,Rodolfo,COTA ROBLES,R. COTA,7/3/1987 0:00,Club León (MEX),188,"Mazatlán, Sinaloa, Mexico",23.2494148,-106.4111425,144,144,Mexico,MX,Mexico,MX,149.3310928
255,456,Mexico,15,Defender,Moreno Hector,Hector Alfredo,MORENO HERRERA,H. MORENO,1/17/1988 0:00,CF Monterrey (MEX),182,"Culiacán, Sinaloa, Mexico",24.8090649,-107.3940117,144,144,Mexico,MX,Mexico,MX,149.3310928
274,460,Mexico,19,Defender,Sanchez Jorge,Jorge Eduardo,SANCHEZ RAMOS,J. SANCHEZ,12/10/1997 0:00,AFC Ajax (NED),170,"Torreón, Coahuila, Mexico",25.5428443,-103.4067861,144,144,Mexico,MX,Mexico,MX,149.3310928
275,462,Mexico,21,Forward,Antuna Uriel,Carlos Uriel,ANTUNA ROMERO,U. ANTUNA,8/21/1997 0:00,Cruz Azul (MEX),167,"Gómez Palacio, Durango, Mexico",25.5891476,-103.485862,144,144,Mexico,MX,Mexico,MX,149.3310928
276,449,Mexico,8,Midfielder,Rodriguez Carlos,Carlos Alberto,RODRIGUEZ GOMEZ,C. RODRIGUEZ,1/3/1997 0:00,Cruz Azul (MEX),170,"San Nicolás de los Garza, Nuevo León, Mexico",25.7493469,-100.2868973,144,144,Mexico,MX,Mexico,MX,149.3310928
277,448,Mexico,7,Midfielder,Romo Luis,Luis Francisco,ROMO BARRON,L. ROMO,6/5/1995 0:00,CF Monterrey (MEX),183,"Ahome, Sinaloa, Mexico",25.9197727,-109.1746261,144,144,Mexico,MX,Mexico,MX,149.3310928
278,455,Mexico,14,Midfielder,Gutierrez Erick,Erick Gabriel,GUTIERREZ GALAVIZ,E. GUTIERREZ,6/15/1995 0:00,PSV Eindhoven (NED),176,"Ahome, Sinaloa, Mexico",25.9197727,-109.1746261,144,144,Mexico,MX,Mexico,MX,149.3310928
285,446,Mexico,5,Defender,Vasquez Johan,Johan Felipe,VASQUEZ IBARRA,J. VASQUEZ,10/22/1998 0:00,US Cremonese (ITA),182,"Navojoa, Sonora, Mexico",27.0727573,-109.4437493,144,144,Mexico,MX,Mexico,MX,149.3310928
289,444,Mexico,3,Defender,Montes Cesar,Cesar Jasib,MONTES CASTRO,C. MONTES,2/24/1997 0:00,CF Monterrey (MEX),191,"Hermosillo, Sonora, Mexico",29.0729673,-110.9559192,144,144,Mexico,MX,Mexico,MX,149.3310928
297,457,Mexico,16,Midfielder,Herrera Hector,Hector Miguel,HERRERA LOPEZ,H. HERRERA,4/19/1990 0:00,Houston Dynamo (USA),180,"Tijuana, Baja California, Mexico",32.5149469,-117.0382471,144,144,Mexico,MX,Mexico,MX,149.3310928
293,478,Morocco,11,Forward,Sabiri Abdelhamid,Abdelhamid,SABIRI,SABIRI,11/28/1996 0:00,UC Sampdoria (ITA),186,"Goulmima, Morocco",31.6891751,-4.9574947,151,151,Morocco,MA,Morocco,MA,56.10325661
294,476,Morocco,9,Forward,Hamdallah Abderrazak,Abderrazzaq,HAMED-ALLAH,HAMEDALLAH,12/17/1990 0:00,Al Ittihad FC (KSA),179,"Safi, Morocco",32.3008151,-9.2272033,151,151,Morocco,MA,Morocco,MA,56.10325661
295,492,Morocco,25,Defender,Attiat-allah Yahya,Yahya,ATTIAT-ALLAH EL IDRISSI,ATTIAT-ALLAH,3/2/1995 0:00,Wydad Casablanca (MAR),176,"Safi, Morocco",32.3008151,-9.2272033,151,151,Morocco,MA,Morocco,MA,56.10325661
296,483,Morocco,16,Forward,Ez Abde,Abdessamad,EZZALZOULI,EZZALZOULI,12/17/2001 0:00,CA Osasuna (ESP),177,"Beni Mellal, Morocco",32.342443,-6.375799,151,151,Morocco,MA,Morocco,MA,56.10325661
302,485,Morocco,18,Defender,El Yamiq Jawad,Jawad,EL-YAMIQ,EL-YAMIQ,2/29/1992 0:00,Real Valladolid CF (ESP),193,"Khouribga, Morocco",32.886023,-6.9208655,151,151,Morocco,MA,Morocco,MA,56.10325661
303,493,Morocco,26,Midfielder,Jabrane Yahya,Yahya,JABRANE,JABRANE,6/18/1991 0:00,Wydad Casablanca (MAR),183,"Settat, Morocco",32.9924242,-7.6222665,151,151,Morocco,MA,Morocco,MA,56.10325661
309,475,Morocco,8,Midfielder,Ounahi Azzedine,Azz-Eddine,OUNAHI,OUNAHI,4/19/2000 0:00,Angers SCO (FRA),182,"Casablanca, Morocco",33.5731104,-7.5898434,151,151,Morocco,MA,Morocco,MA,56.10325661
310,487,Morocco,20,Defender,Dari Achraf,Achraf,DARI,DARI,5/6/1999 0:00,Stade Brest (FRA),190,"Casablanca, Morocco",33.5731104,-7.5898434,151,151,Morocco,MA,Morocco,MA,56.10325661
311,491,Morocco,24,Defender,Benoun Badr,Badr,BENOUN,BENOUN,9/30/1993 0:00,Qatar SC (QAT),188,"Casablanca, Morocco",33.5731104,-7.5898434,151,151,Morocco,MA,Morocco,MA,56.10325661
322,486,Morocco,19,Forward,En-nesyri Youssef,Youssef,EN-NESYRI,EN-NESYRI,6/1/1997 0:00,Sevilla FC (ESP),188,"Fez, Morocco",34.0181246,-5.0078451,151,151,Morocco,MA,Morocco,MA,56.10325661
323,489,Morocco,22,Goalkeeper,Tagnaouti Reda,Ahmed Reda,TAGNAOUTI,TAGNAOUTI,4/5/1996 0:00,Wydad Casablanca (MAR),186,"Fes, Morocco",34.0181246,-5.0078451,151,151,Morocco,MA,Morocco,MA,56.10325661
325,472,Morocco,5,Defender,Aguerd Nayef,Nayef,AGUERD,AGUERD,3/30/1996 0:00,West Ham United FC (ENG),190,"Kenitra, Morocco",34.2540503,-6.5890166,151,151,Morocco,MA,Morocco,MA,56.10325661
